[
  {
    "id": 1,
    "name": "Goroka Airport",
    "city": "Goroka",
    "country": "Papua New Guinea",
    "iata": "GKA",
    "icao": "AYGA",
    "lat": -6.081689835,
    "long": 145.3919983
  },
  {
    "id": 2,
    "name": "Madang Airport",
    "city": "Madang",
    "country": "Papua New Guinea",
    "iata": "MAG",
    "icao": "AYMD",
    "lat": -5.207079887,
    "long": 145.7890015
  },
  {
    "id": 3,
    "name": "Mount Hagen Kagamuga Airport",
    "city": "Mount Hagen",
    "country": "Papua New Guinea",
    "iata": "HGU",
    "icao": "AYMH",
    "lat": -5.826789856,
    "long": 144.2960052
  },
  {
    "id": 4,
    "name": "Nadzab Airport",
    "city": "Nadzab",
    "country": "Papua New Guinea",
    "iata": "LAE",
    "icao": "AYNZ",
    "lat": -6.569803,
    "long": 146.725977
  },
  {
    "id": 5,
    "name": "Port Moresby Jacksons International Airport",
    "city": "Port Moresby",
    "country": "Papua New Guinea",
    "iata": "POM",
    "icao": "AYPY",
    "lat": -9.443380356,
    "long": 147.2200012
  },
  {
    "id": 6,
    "name": "Wewak International Airport",
    "city": "Wewak",
    "country": "Papua New Guinea",
    "iata": "WWK",
    "icao": "AYWK",
    "lat": -3.583830118,
    "long": 143.6690063
  },
  {
    "id": 7,
    "name": "Narsarsuaq Airport",
    "city": "Narssarssuaq",
    "country": "Greenland",
    "iata": "UAK",
    "icao": "BGBW",
    "lat": 61.16049957,
    "long": -45.42599869
  },
  {
    "id": 8,
    "name": "Godthaab / Nuuk Airport",
    "city": "Godthaab",
    "country": "Greenland",
    "iata": "GOH",
    "icao": "BGGH",
    "lat": 64.19090271,
    "long": -51.67810059
  },
  {
    "id": 9,
    "name": "Kangerlussuaq Airport",
    "city": "Sondrestrom",
    "country": "Greenland",
    "iata": "SFJ",
    "icao": "BGSF",
    "lat": 67.0122219,
    "long": -50.71160316
  },
  {
    "id": 10,
    "name": "Thule Air Base",
    "city": "Thule",
    "country": "Greenland",
    "iata": "THU",
    "icao": "BGTL",
    "lat": 76.53119659,
    "long": -68.70320129
  },
  {
    "id": 11,
    "name": "Akureyri Airport",
    "city": "Akureyri",
    "country": "Iceland",
    "iata": "AEY",
    "icao": "BIAR",
    "lat": 65.66000366,
    "long": -18.0727005
  },
  {
    "id": 12,
    "name": "Egilsstaðir Airport",
    "city": "Egilsstadir",
    "country": "Iceland",
    "iata": "EGS",
    "icao": "BIEG",
    "lat": 65.28330231,
    "long": -14.40139961
  },
  {
    "id": 13,
    "name": "Hornafjörður Airport",
    "city": "Hofn",
    "country": "Iceland",
    "iata": "HFN",
    "icao": "BIHN",
    "lat": 64.295601,
    "long": -15.2272
  },
  {
    "id": 14,
    "name": "Húsavík Airport",
    "city": "Husavik",
    "country": "Iceland",
    "iata": "HZK",
    "icao": "BIHU",
    "lat": 65.952301,
    "long": -17.426001
  },
  {
    "id": 15,
    "name": "Ísafjörður Airport",
    "city": "Isafjordur",
    "country": "Iceland",
    "iata": "IFJ",
    "icao": "BIIS",
    "lat": 66.05809784,
    "long": -23.13529968
  },
  {
    "id": 16,
    "name": "Keflavik International Airport",
    "city": "Keflavik",
    "country": "Iceland",
    "iata": "KEF",
    "icao": "BIKF",
    "lat": 63.98500061,
    "long": -22.60560036
  },
  {
    "id": 17,
    "name": "Patreksfjörður Airport",
    "city": "Patreksfjordur",
    "country": "Iceland",
    "iata": "PFJ",
    "icao": "BIPA",
    "lat": 65.555801,
    "long": -23.965
  },
  {
    "id": 18,
    "name": "Reykjavik Airport",
    "city": "Reykjavik",
    "country": "Iceland",
    "iata": "RKV",
    "icao": "BIRK",
    "lat": 64.12999725,
    "long": -21.94059944
  },
  {
    "id": 19,
    "name": "Siglufjörður Airport",
    "city": "Siglufjordur",
    "country": "Iceland",
    "iata": "SIJ",
    "icao": "BISI",
    "lat": 66.133301,
    "long": -18.9167
  },
  {
    "id": 20,
    "name": "Vestmannaeyjar Airport",
    "city": "Vestmannaeyjar",
    "country": "Iceland",
    "iata": "VEY",
    "icao": "BIVM",
    "lat": 63.42430115,
    "long": -20.27890015
  },
  {
    "id": 21,
    "name": "Sault Ste Marie Airport",
    "city": "Sault Sainte Marie",
    "country": "Canada",
    "iata": "YAM",
    "icao": "CYAM",
    "lat": 46.48500061,
    "long": -84.50939941
  },
  {
    "id": 22,
    "name": "Winnipeg / St. Andrews Airport",
    "city": "Winnipeg",
    "country": "Canada",
    "iata": "",
    "icao": "CYAV",
    "lat": 50.0564003,
    "long": -97.03250122
  },
  {
    "id": 23,
    "name": "Halifax / CFB Shearwater Heliport",
    "city": "Halifax",
    "country": "Canada",
    "iata": "",
    "icao": "CYAW",
    "lat": 44.639702,
    "long": -63.499401
  },
  {
    "id": 24,
    "name": "St. Anthony Airport",
    "city": "St. Anthony",
    "country": "Canada",
    "iata": "YAY",
    "icao": "CYAY",
    "lat": 51.39189911,
    "long": -56.08309937
  },
  {
    "id": 25,
    "name": "Tofino / Long Beach Airport",
    "city": "Tofino",
    "country": "Canada",
    "iata": "YAZ",
    "icao": "CYAZ",
    "lat": 49.079833,
    "long": -125.775583
  },
  {
    "id": 26,
    "name": "Kugaaruk Airport",
    "city": "Pelly Bay",
    "country": "Canada",
    "iata": "YBB",
    "icao": "CYBB",
    "lat": 68.534401,
    "long": -89.808098
  },
  {
    "id": 27,
    "name": "Baie Comeau Airport",
    "city": "Baie Comeau",
    "country": "Canada",
    "iata": "YBC",
    "icao": "CYBC",
    "lat": 49.13249969,
    "long": -68.20439911
  },
  {
    "id": 28,
    "name": "CFB Bagotville",
    "city": "Bagotville",
    "country": "Canada",
    "iata": "YBG",
    "icao": "CYBG",
    "lat": 48.33060074,
    "long": -70.99639893
  },
  {
    "id": 29,
    "name": "Baker Lake Airport",
    "city": "Baker Lake",
    "country": "Canada",
    "iata": "YBK",
    "icao": "CYBK",
    "lat": 64.29889679,
    "long": -96.07779694
  },
  {
    "id": 30,
    "name": "Campbell River Airport",
    "city": "Campbell River",
    "country": "Canada",
    "iata": "YBL",
    "icao": "CYBL",
    "lat": 49.95080185,
    "long": -125.2710037
  },
  {
    "id": 31,
    "name": "Brandon Municipal Airport",
    "city": "Brandon",
    "country": "Canada",
    "iata": "YBR",
    "icao": "CYBR",
    "lat": 49.91,
    "long": -99.951897
  },
  {
    "id": 32,
    "name": "Cambridge Bay Airport",
    "city": "Cambridge Bay",
    "country": "Canada",
    "iata": "YCB",
    "icao": "CYCB",
    "lat": 69.10810089,
    "long": -105.1380005
  },
  {
    "id": 33,
    "name": "Nanaimo Airport",
    "city": "Nanaimo",
    "country": "Canada",
    "iata": "YCD",
    "icao": "CYCD",
    "lat": 49.05497022,
    "long": -123.8698626
  },
  {
    "id": 34,
    "name": "Castlegar/West Kootenay Regional Airport",
    "city": "Castlegar",
    "country": "Canada",
    "iata": "YCG",
    "icao": "CYCG",
    "lat": 49.29639816,
    "long": -117.6320038
  },
  {
    "id": 35,
    "name": "Miramichi Airport",
    "city": "Chatham",
    "country": "Canada",
    "iata": "YCH",
    "icao": "CYCH",
    "lat": 47.007801,
    "long": -65.449203
  },
  {
    "id": 36,
    "name": "Charlo Airport",
    "city": "Charlo",
    "country": "Canada",
    "iata": "YCL",
    "icao": "CYCL",
    "lat": 47.990799,
    "long": -66.330299
  },
  {
    "id": 37,
    "name": "Kugluktuk Airport",
    "city": "Coppermine",
    "country": "Canada",
    "iata": "YCO",
    "icao": "CYCO",
    "lat": 67.816704,
    "long": -115.143997
  },
  {
    "id": 38,
    "name": "Coronation Airport",
    "city": "Coronation",
    "country": "Canada",
    "iata": "YCT",
    "icao": "CYCT",
    "lat": 52.07500076,
    "long": -111.4449997
  },
  {
    "id": 39,
    "name": "Chilliwack Airport",
    "city": "Chilliwack",
    "country": "Canada",
    "iata": "YCW",
    "icao": "CYCW",
    "lat": 49.15280151,
    "long": -121.939003
  },
  {
    "id": 40,
    "name": "Clyde River Airport",
    "city": "Clyde River",
    "country": "Canada",
    "iata": "YCY",
    "icao": "CYCY",
    "lat": 70.48609924,
    "long": -68.51670074
  },
  {
    "id": 41,
    "name": "Coral Harbour Airport",
    "city": "Coral Harbour",
    "country": "Canada",
    "iata": "YZS",
    "icao": "CYZS",
    "lat": 64.19329834,
    "long": -83.35939789
  },
  {
    "id": 42,
    "name": "Dawson City Airport",
    "city": "Dawson",
    "country": "Canada",
    "iata": "YDA",
    "icao": "CYDA",
    "lat": 64.04309845,
    "long": -139.128006
  },
  {
    "id": 43,
    "name": "Burwash Airport",
    "city": "Burwash",
    "country": "Canada",
    "iata": "YDB",
    "icao": "CYDB",
    "lat": 61.37110138,
    "long": -139.0410004
  },
  {
    "id": 44,
    "name": "Princeton Airport",
    "city": "Princeton",
    "country": "Canada",
    "iata": "",
    "icao": "CYDC",
    "lat": 49.4681015,
    "long": -120.5110016
  },
  {
    "id": 45,
    "name": "Deer Lake Airport",
    "city": "Deer Lake",
    "country": "Canada",
    "iata": "YDF",
    "icao": "CYDF",
    "lat": 49.21080017,
    "long": -57.39139938
  },
  {
    "id": 46,
    "name": "Dease Lake Airport",
    "city": "Dease Lake",
    "country": "Canada",
    "iata": "YDL",
    "icao": "CYDL",
    "lat": 58.42219925,
    "long": -130.0319977
  },
  {
    "id": 47,
    "name": "Dauphin Barker Airport",
    "city": "Dauphin",
    "country": "Canada",
    "iata": "YDN",
    "icao": "CYDN",
    "lat": 51.10079956,
    "long": -100.052002
  },
  {
    "id": 48,
    "name": "Dawson Creek Airport",
    "city": "Dawson Creek",
    "country": "Canada",
    "iata": "YDQ",
    "icao": "CYDQ",
    "lat": 55.74229813,
    "long": -120.1829987
  },
  {
    "id": 49,
    "name": "Edmonton International Airport",
    "city": "Edmonton",
    "country": "Canada",
    "iata": "YEG",
    "icao": "CYEG",
    "lat": 53.30970001,
    "long": -113.5800018
  },
  {
    "id": 50,
    "name": "Arviat Airport",
    "city": "Eskimo Point",
    "country": "Canada",
    "iata": "YEK",
    "icao": "CYEK",
    "lat": 61.09420013,
    "long": -94.07080078
  },
  {
    "id": 51,
    "name": "Estevan Airport",
    "city": "Estevan",
    "country": "Canada",
    "iata": "YEN",
    "icao": "CYEN",
    "lat": 49.21030045,
    "long": -102.9660034
  },
  {
    "id": 52,
    "name": "Edson Airport",
    "city": "Edson",
    "country": "Canada",
    "iata": "YET",
    "icao": "CYET",
    "lat": 53.57889938,
    "long": -116.4649963
  },
  {
    "id": 53,
    "name": "Eureka Airport",
    "city": "Eureka",
    "country": "Canada",
    "iata": "YEU",
    "icao": "CYEU",
    "lat": 79.99469757,
    "long": -85.81420136
  },
  {
    "id": 54,
    "name": "Inuvik Mike Zubko Airport",
    "city": "Inuvik",
    "country": "Canada",
    "iata": "YEV",
    "icao": "CYEV",
    "lat": 68.30419922,
    "long": -133.4830017
  },
  {
    "id": 55,
    "name": "Iqaluit Airport",
    "city": "Iqaluit",
    "country": "Canada",
    "iata": "YFB",
    "icao": "CYFB",
    "lat": 63.756402,
    "long": -68.555801
  },
  {
    "id": 56,
    "name": "Fredericton Airport",
    "city": "Fredericton",
    "country": "Canada",
    "iata": "YFC",
    "icao": "CYFC",
    "lat": 45.8689003,
    "long": -66.53720093
  },
  {
    "id": 57,
    "name": "Forestville Airport",
    "city": "Forestville",
    "country": "Canada",
    "iata": "YFE",
    "icao": "CYFE",
    "lat": 48.74610138,
    "long": -69.09719849
  },
  {
    "id": 58,
    "name": "Flin Flon Airport",
    "city": "Flin Flon",
    "country": "Canada",
    "iata": "YFO",
    "icao": "CYFO",
    "lat": 54.67810059,
    "long": -101.6819992
  },
  {
    "id": 59,
    "name": "Fort Resolution Airport",
    "city": "Fort Resolution",
    "country": "Canada",
    "iata": "YFR",
    "icao": "CYFR",
    "lat": 61.18080139,
    "long": -113.6900024
  },
  {
    "id": 60,
    "name": "Fort Simpson Airport",
    "city": "Fort Simpson",
    "country": "Canada",
    "iata": "YFS",
    "icao": "CYFS",
    "lat": 61.7602005,
    "long": -121.2369995
  },
  {
    "id": 61,
    "name": "Kingston Norman Rogers Airport",
    "city": "Kingston",
    "country": "Canada",
    "iata": "YGK",
    "icao": "CYGK",
    "lat": 44.22529984,
    "long": -76.59690094
  },
  {
    "id": 62,
    "name": "La Grande Rivière Airport",
    "city": "La Grande Riviere",
    "country": "Canada",
    "iata": "YGL",
    "icao": "CYGL",
    "lat": 53.62530136,
    "long": -77.70420074
  },
  {
    "id": 63,
    "name": "Gaspé (Michel-Pouliot) Airport",
    "city": "Gaspe",
    "country": "Canada",
    "iata": "YGP",
    "icao": "CYGP",
    "lat": 48.77529907,
    "long": -64.47859955
  },
  {
    "id": 64,
    "name": "Geraldton Greenstone Regional Airport",
    "city": "Geraldton",
    "country": "Canada",
    "iata": "YGQ",
    "icao": "CYGQ",
    "lat": 49.77830124,
    "long": -86.93939972
  },
  {
    "id": 65,
    "name": "Îles-de-la-Madeleine Airport",
    "city": "Iles De La Madeleine",
    "country": "Canada",
    "iata": "YGR",
    "icao": "CYGR",
    "lat": 47.42470169,
    "long": -61.77809906
  },
  {
    "id": 66,
    "name": "Hudson Bay Airport",
    "city": "Hudson Bay",
    "country": "Canada",
    "iata": "YHB",
    "icao": "CYHB",
    "lat": 52.81669998,
    "long": -102.310997
  },
  {
    "id": 67,
    "name": "Dryden Regional Airport",
    "city": "Dryden",
    "country": "Canada",
    "iata": "YHD",
    "icao": "CYHD",
    "lat": 49.831699,
    "long": -92.744202
  },
  {
    "id": 68,
    "name": "Ulukhaktok Holman Airport",
    "city": "Holman Island",
    "country": "Canada",
    "iata": "YHI",
    "icao": "CYHI",
    "lat": 70.76280212,
    "long": -117.8059998
  },
  {
    "id": 69,
    "name": "Gjoa Haven Airport",
    "city": "Gjoa Haven",
    "country": "Canada",
    "iata": "YHK",
    "icao": "CYHK",
    "lat": 68.63559723,
    "long": -95.84970093
  },
  {
    "id": 70,
    "name": "John C. Munro Hamilton International Airport",
    "city": "Hamilton",
    "country": "Canada",
    "iata": "YHM",
    "icao": "CYHM",
    "lat": 43.17359924,
    "long": -79.93499756
  },
  {
    "id": 71,
    "name": "Montréal / Saint-Hubert Airport",
    "city": "Montreal",
    "country": "Canada",
    "iata": "YHU",
    "icao": "CYHU",
    "lat": 45.51750183,
    "long": -73.41690063
  },
  {
    "id": 72,
    "name": "Hay River / Merlyn Carter Airport",
    "city": "Hay River",
    "country": "Canada",
    "iata": "YHY",
    "icao": "CYHY",
    "lat": 60.83969879,
    "long": -115.7829971
  },
  {
    "id": 73,
    "name": "Halifax / Stanfield International Airport",
    "city": "Halifax",
    "country": "Canada",
    "iata": "YHZ",
    "icao": "CYHZ",
    "lat": 44.88079834,
    "long": -63.50859833
  },
  {
    "id": 74,
    "name": "Atikokan Municipal Airport",
    "city": "Atikokan",
    "country": "Canada",
    "iata": "YIB",
    "icao": "CYIB",
    "lat": 48.77389908,
    "long": -91.63860321
  },
  {
    "id": 75,
    "name": "Pond Inlet Airport",
    "city": "Pond Inlet",
    "country": "Canada",
    "iata": "YIO",
    "icao": "CYIO",
    "lat": 72.6832962,
    "long": -77.96669769
  },
  {
    "id": 76,
    "name": "St Jean Airport",
    "city": "St. Jean",
    "country": "Canada",
    "iata": "YJN",
    "icao": "CYJN",
    "lat": 45.29439926,
    "long": -73.28109741
  },
  {
    "id": 77,
    "name": "Stephenville Airport",
    "city": "Stephenville",
    "country": "Canada",
    "iata": "YJT",
    "icao": "CYJT",
    "lat": 48.5442009,
    "long": -58.54999924
  },
  {
    "id": 78,
    "name": "Kamloops Airport",
    "city": "Kamloops",
    "country": "Canada",
    "iata": "YKA",
    "icao": "CYKA",
    "lat": 50.70220184,
    "long": -120.4440002
  },
  {
    "id": 79,
    "name": "Waterloo Airport",
    "city": "Waterloo",
    "country": "Canada",
    "iata": "YKF",
    "icao": "CYKF",
    "lat": 43.46080017,
    "long": -80.37860107
  },
  {
    "id": 80,
    "name": "Schefferville Airport",
    "city": "Schefferville",
    "country": "Canada",
    "iata": "YKL",
    "icao": "CYKL",
    "lat": 54.80530167,
    "long": -66.80529785
  },
  {
    "id": 81,
    "name": "Kindersley Airport",
    "city": "Kindersley",
    "country": "Canada",
    "iata": "YKY",
    "icao": "CYKY",
    "lat": 51.51750183,
    "long": -109.1809998
  },
  {
    "id": 82,
    "name": "Buttonville Municipal Airport",
    "city": "Toronto",
    "country": "Canada",
    "iata": "YKZ",
    "icao": "CYKZ",
    "lat": 43.86220169,
    "long": -79.37000275
  },
  {
    "id": 83,
    "name": "Chapleau Airport",
    "city": "Chapleau",
    "country": "Canada",
    "iata": "YLD",
    "icao": "CYLD",
    "lat": 47.81999969,
    "long": -83.34670258
  },
  {
    "id": 84,
    "name": "Meadow Lake Airport",
    "city": "Meadow Lake",
    "country": "Canada",
    "iata": "YLJ",
    "icao": "CYLJ",
    "lat": 54.12530136,
    "long": -108.5230026
  },
  {
    "id": 85,
    "name": "Lloydminster Airport",
    "city": "Lloydminster",
    "country": "Canada",
    "iata": "YLL",
    "icao": "CYLL",
    "lat": 53.30920029,
    "long": -110.072998
  },
  {
    "id": 86,
    "name": "Alert Airport",
    "city": "Alert",
    "country": "Canada",
    "iata": "YLT",
    "icao": "CYLT",
    "lat": 82.51779938,
    "long": -62.2806015
  },
  {
    "id": 87,
    "name": "Kelowna International Airport",
    "city": "Kelowna",
    "country": "Canada",
    "iata": "YLW",
    "icao": "CYLW",
    "lat": 49.95610046,
    "long": -119.3779984
  },
  {
    "id": 88,
    "name": "Mayo Airport",
    "city": "Mayo",
    "country": "Canada",
    "iata": "YMA",
    "icao": "CYMA",
    "lat": 63.61640167,
    "long": -135.8679962
  },
  {
    "id": 89,
    "name": "Moose Jaw Air Vice Marshal C. M. McEwen Airport",
    "city": "Moose Jaw",
    "country": "Canada",
    "iata": "YMJ",
    "icao": "CYMJ",
    "lat": 50.33029938,
    "long": -105.5589981
  },
  {
    "id": 90,
    "name": "Fort McMurray Airport",
    "city": "Fort Mcmurray",
    "country": "Canada",
    "iata": "YMM",
    "icao": "CYMM",
    "lat": 56.65330124,
    "long": -111.2220001
  },
  {
    "id": 91,
    "name": "Moosonee Airport",
    "city": "Moosonee",
    "country": "Canada",
    "iata": "YMO",
    "icao": "CYMO",
    "lat": 51.29109955,
    "long": -80.60780334
  },
  {
    "id": 92,
    "name": "Maniwaki Airport",
    "city": "Maniwaki",
    "country": "Canada",
    "iata": "YMW",
    "icao": "CYMW",
    "lat": 46.27280045,
    "long": -75.99060059
  },
  {
    "id": 93,
    "name": "Montreal International (Mirabel) Airport",
    "city": "Montreal",
    "country": "Canada",
    "iata": "YMX",
    "icao": "CYMX",
    "lat": 45.679501,
    "long": -74.038696
  },
  {
    "id": 94,
    "name": "Natashquan Airport",
    "city": "Natashquan",
    "country": "Canada",
    "iata": "YNA",
    "icao": "CYNA",
    "lat": 50.18999863,
    "long": -61.78919983
  },
  {
    "id": 95,
    "name": "Ottawa / Gatineau Airport",
    "city": "Gatineau",
    "country": "Canada",
    "iata": "YND",
    "icao": "CYND",
    "lat": 45.52170181,
    "long": -75.56359863
  },
  {
    "id": 96,
    "name": "Matagami Airport",
    "city": "Matagami",
    "country": "Canada",
    "iata": "YNM",
    "icao": "CYNM",
    "lat": 49.76169968,
    "long": -77.80280304
  },
  {
    "id": 97,
    "name": "Old Crow Airport",
    "city": "Old Crow",
    "country": "Canada",
    "iata": "YOC",
    "icao": "CYOC",
    "lat": 67.57060242,
    "long": -139.8390045
  },
  {
    "id": 98,
    "name": "CFB Cold Lake",
    "city": "Cold Lake",
    "country": "Canada",
    "iata": "YOD",
    "icao": "CYOD",
    "lat": 54.40499878,
    "long": -110.2789993
  },
  {
    "id": 99,
    "name": "High Level Airport",
    "city": "High Level",
    "country": "Canada",
    "iata": "YOJ",
    "icao": "CYOJ",
    "lat": 58.62139893,
    "long": -117.1650009
  },
  {
    "id": 100,
    "name": "Ottawa Macdonald-Cartier International Airport",
    "city": "Ottawa",
    "country": "Canada",
    "iata": "YOW",
    "icao": "CYOW",
    "lat": 45.32249832,
    "long": -75.66919708
  },
  {
    "id": 101,
    "name": "Prince Albert Glass Field",
    "city": "Prince Albert",
    "country": "Canada",
    "iata": "YPA",
    "icao": "CYPA",
    "lat": 53.21419907,
    "long": -105.6729965
  },
  {
    "id": 102,
    "name": "Peace River Airport",
    "city": "Peace River",
    "country": "Canada",
    "iata": "YPE",
    "icao": "CYPE",
    "lat": 56.226898,
    "long": -117.446999
  },
  {
    "id": 103,
    "name": "Southport Airport",
    "city": "Portage-la-prairie",
    "country": "Canada",
    "iata": "YPG",
    "icao": "CYPG",
    "lat": 49.903099,
    "long": -98.273817
  },
  {
    "id": 104,
    "name": "Pitt Meadows Airport",
    "city": "Pitt Meadows",
    "country": "Canada",
    "iata": "",
    "icao": "CYPK",
    "lat": 49.21609879,
    "long": -122.7099991
  },
  {
    "id": 105,
    "name": "Pickle Lake Airport",
    "city": "Pickle Lake",
    "country": "Canada",
    "iata": "YPL",
    "icao": "CYPL",
    "lat": 51.44639969,
    "long": -90.21420288
  },
  {
    "id": 106,
    "name": "Port Menier Airport",
    "city": "Port Menier",
    "country": "Canada",
    "iata": "YPN",
    "icao": "CYPN",
    "lat": 49.83639908,
    "long": -64.28859711
  },
  {
    "id": 107,
    "name": "Peterborough Airport",
    "city": "Peterborough",
    "country": "Canada",
    "iata": "YPQ",
    "icao": "CYPQ",
    "lat": 44.22999954,
    "long": -78.36329651
  },
  {
    "id": 108,
    "name": "Prince Rupert Airport",
    "city": "Prince Pupert",
    "country": "Canada",
    "iata": "YPR",
    "icao": "CYPR",
    "lat": 54.28609848,
    "long": -130.4450073
  },
  {
    "id": 109,
    "name": "Fort Chipewyan Airport",
    "city": "Fort Chipewyan",
    "country": "Canada",
    "iata": "YPY",
    "icao": "CYPY",
    "lat": 58.76720047,
    "long": -111.1169968
  },
  {
    "id": 110,
    "name": "Muskoka Airport",
    "city": "Muskoka",
    "country": "Canada",
    "iata": "YQA",
    "icao": "CYQA",
    "lat": 44.97470093,
    "long": -79.30329895
  },
  {
    "id": 111,
    "name": "Quebec Jean Lesage International Airport",
    "city": "Quebec",
    "country": "Canada",
    "iata": "YQB",
    "icao": "CYQB",
    "lat": 46.7911,
    "long": -71.393303
  },
  {
    "id": 112,
    "name": "Red Deer Regional Airport",
    "city": "Red Deer Industrial",
    "country": "Canada",
    "iata": "YQF",
    "icao": "CYQF",
    "lat": 52.18220139,
    "long": -113.8939972
  },
  {
    "id": 113,
    "name": "Windsor Airport",
    "city": "Windsor",
    "country": "Canada",
    "iata": "YQG",
    "icao": "CYQG",
    "lat": 42.27560043,
    "long": -82.95559692
  },
  {
    "id": 114,
    "name": "Watson Lake Airport",
    "city": "Watson Lake",
    "country": "Canada",
    "iata": "YQH",
    "icao": "CYQH",
    "lat": 60.11640167,
    "long": -128.8220062
  },
  {
    "id": 115,
    "name": "Kenora Airport",
    "city": "Kenora",
    "country": "Canada",
    "iata": "YQK",
    "icao": "CYQK",
    "lat": 49.78829956,
    "long": -94.36309814
  },
  {
    "id": 116,
    "name": "Lethbridge County Airport",
    "city": "Lethbridge",
    "country": "Canada",
    "iata": "YQL",
    "icao": "CYQL",
    "lat": 49.63029861,
    "long": -112.8000031
  },
  {
    "id": 117,
    "name": "Greater Moncton International Airport",
    "city": "Moncton",
    "country": "Canada",
    "iata": "YQM",
    "icao": "CYQM",
    "lat": 46.11220169,
    "long": -64.6785965
  },
  {
    "id": 119,
    "name": "Comox Airport",
    "city": "Comox",
    "country": "Canada",
    "iata": "YQQ",
    "icao": "CYQQ",
    "lat": 49.71080017,
    "long": -124.887001
  },
  {
    "id": 120,
    "name": "Regina International Airport",
    "city": "Regina",
    "country": "Canada",
    "iata": "YQR",
    "icao": "CYQR",
    "lat": 50.43190002,
    "long": -104.6660004
  },
  {
    "id": 121,
    "name": "Thunder Bay Airport",
    "city": "Thunder Bay",
    "country": "Canada",
    "iata": "YQT",
    "icao": "CYQT",
    "lat": 48.37189865,
    "long": -89.32389832
  },
  {
    "id": 122,
    "name": "Grande Prairie Airport",
    "city": "Grande Prairie",
    "country": "Canada",
    "iata": "YQU",
    "icao": "CYQU",
    "lat": 55.17969894,
    "long": -118.8850021
  },
  {
    "id": 123,
    "name": "Yorkton Municipal Airport",
    "city": "Yorkton",
    "country": "Canada",
    "iata": "YQV",
    "icao": "CYQV",
    "lat": 51.26470184,
    "long": -102.461998
  },
  {
    "id": 124,
    "name": "North Battleford Airport",
    "city": "North Battleford",
    "country": "Canada",
    "iata": "YQW",
    "icao": "CYQW",
    "lat": 52.76919937,
    "long": -108.2440033
  },
  {
    "id": 125,
    "name": "Gander International Airport",
    "city": "Gander",
    "country": "Canada",
    "iata": "YQX",
    "icao": "CYQX",
    "lat": 48.93690109,
    "long": -54.56809998
  },
  {
    "id": 126,
    "name": "Sydney / J.A. Douglas McCurdy Airport",
    "city": "Sydney",
    "country": "Canada",
    "iata": "YQY",
    "icao": "CYQY",
    "lat": 46.1614,
    "long": -60.047798
  },
  {
    "id": 127,
    "name": "Quesnel Airport",
    "city": "Quesnel",
    "country": "Canada",
    "iata": "YQZ",
    "icao": "CYQZ",
    "lat": 53.02610016,
    "long": -122.5100021
  },
  {
    "id": 128,
    "name": "Resolute Bay Airport",
    "city": "Resolute",
    "country": "Canada",
    "iata": "YRB",
    "icao": "CYRB",
    "lat": 74.71690369,
    "long": -94.9693985
  },
  {
    "id": 129,
    "name": "Rivière-du-Loup Airport",
    "city": "Riviere Du Loup",
    "country": "Canada",
    "iata": "YRI",
    "icao": "CYRI",
    "lat": 47.76440048,
    "long": -69.58470154
  },
  {
    "id": 130,
    "name": "Roberval Airport",
    "city": "Roberval",
    "country": "Canada",
    "iata": "YRJ",
    "icao": "CYRJ",
    "lat": 48.52000046,
    "long": -72.26560211
  },
  {
    "id": 131,
    "name": "Rocky Mountain House Airport",
    "city": "Rocky Mountain House",
    "country": "Canada",
    "iata": "YRM",
    "icao": "CYRM",
    "lat": 52.42969894,
    "long": -114.9039993
  },
  {
    "id": 132,
    "name": "Rankin Inlet Airport",
    "city": "Rankin Inlet",
    "country": "Canada",
    "iata": "YRT",
    "icao": "CYRT",
    "lat": 62.81140137,
    "long": -92.11579895
  },
  {
    "id": 133,
    "name": "Sudbury Airport",
    "city": "Sudbury",
    "country": "Canada",
    "iata": "YSB",
    "icao": "CYSB",
    "lat": 46.625,
    "long": -80.79889679
  },
  {
    "id": 134,
    "name": "Sherbrooke Airport",
    "city": "Sherbrooke",
    "country": "Canada",
    "iata": "YSC",
    "icao": "CYSC",
    "lat": 45.43859863,
    "long": -71.69139862
  },
  {
    "id": 135,
    "name": "Saint John Airport",
    "city": "St. John",
    "country": "Canada",
    "iata": "YSJ",
    "icao": "CYSJ",
    "lat": 45.31610107,
    "long": -65.89029694
  },
  {
    "id": 136,
    "name": "Fort Smith Airport",
    "city": "Fort Smith",
    "country": "Canada",
    "iata": "YSM",
    "icao": "CYSM",
    "lat": 60.02030182,
    "long": -111.961998
  },
  {
    "id": 137,
    "name": "Nanisivik Airport",
    "city": "Nanisivik",
    "country": "Canada",
    "iata": "YSR",
    "icao": "CYSR",
    "lat": 72.982201,
    "long": -84.613602
  },
  {
    "id": 138,
    "name": "Summerside Airport",
    "city": "Summerside",
    "country": "Canada",
    "iata": "YSU",
    "icao": "CYSU",
    "lat": 46.44060135,
    "long": -63.83359909
  },
  {
    "id": 139,
    "name": "Sachs Harbour (David Nasogaluak Jr. Saaryuaq) Airport",
    "city": "Sachs Harbour",
    "country": "Canada",
    "iata": "YSY",
    "icao": "CYSY",
    "lat": 71.99389648,
    "long": -125.2429962
  },
  {
    "id": 140,
    "name": "Cape Dorset Airport",
    "city": "Cape Dorset",
    "country": "Canada",
    "iata": "YTE",
    "icao": "CYTE",
    "lat": 64.23000336,
    "long": -76.52670288
  },
  {
    "id": 141,
    "name": "Thompson Airport",
    "city": "Thompson",
    "country": "Canada",
    "iata": "YTH",
    "icao": "CYTH",
    "lat": 55.80110168,
    "long": -97.86419678
  },
  {
    "id": 142,
    "name": "CFB Trenton",
    "city": "Trenton",
    "country": "Canada",
    "iata": "YTR",
    "icao": "CYTR",
    "lat": 44.1189003,
    "long": -77.52809906
  },
  {
    "id": 143,
    "name": "Timmins/Victor M. Power",
    "city": "Timmins",
    "country": "Canada",
    "iata": "YTS",
    "icao": "CYTS",
    "lat": 48.56969833,
    "long": -81.37670136
  },
  {
    "id": 144,
    "name": "Billy Bishop Toronto City Centre Airport",
    "city": "Toronto",
    "country": "Canada",
    "iata": "YTZ",
    "icao": "CYTZ",
    "lat": 43.627499,
    "long": -79.396202
  },
  {
    "id": 145,
    "name": "Tuktoyaktuk Airport",
    "city": "Tuktoyaktuk",
    "country": "Canada",
    "iata": "YUB",
    "icao": "CYUB",
    "lat": 69.4332962,
    "long": -133.026001
  },
  {
    "id": 146,
    "name": "Montreal / Pierre Elliott Trudeau International Airport",
    "city": "Montreal",
    "country": "Canada",
    "iata": "YUL",
    "icao": "CYUL",
    "lat": 45.47060013,
    "long": -73.74079895
  },
  {
    "id": 147,
    "name": "Repulse Bay Airport",
    "city": "Repulse Bay",
    "country": "Canada",
    "iata": "YUT",
    "icao": "CYUT",
    "lat": 66.52140045,
    "long": -86.22470093
  },
  {
    "id": 148,
    "name": "Hall Beach Airport",
    "city": "Hall Beach",
    "country": "Canada",
    "iata": "YUX",
    "icao": "CYUX",
    "lat": 68.77610016,
    "long": -81.2425
  },
  {
    "id": 149,
    "name": "Rouyn Noranda Airport",
    "city": "Rouyn",
    "country": "Canada",
    "iata": "YUY",
    "icao": "CYUY",
    "lat": 48.20610046,
    "long": -78.83560181
  },
  {
    "id": 150,
    "name": "La Ronge Airport",
    "city": "La Ronge",
    "country": "Canada",
    "iata": "YVC",
    "icao": "CYVC",
    "lat": 55.15140152,
    "long": -105.262001
  },
  {
    "id": 151,
    "name": "Vermilion Airport",
    "city": "Vermillion",
    "country": "Canada",
    "iata": "YVG",
    "icao": "CYVG",
    "lat": 53.35580063,
    "long": -110.8239975
  },
  {
    "id": 152,
    "name": "Qikiqtarjuaq Airport",
    "city": "Broughton Island",
    "country": "Canada",
    "iata": "YVM",
    "icao": "CYVM",
    "lat": 67.54579926,
    "long": -64.03140259
  },
  {
    "id": 153,
    "name": "Val-d'Or Airport",
    "city": "Val D'or",
    "country": "Canada",
    "iata": "YVO",
    "icao": "CYVO",
    "lat": 48.05329895,
    "long": -77.78279877
  },
  {
    "id": 154,
    "name": "Kuujjuaq Airport",
    "city": "Quujjuaq",
    "country": "Canada",
    "iata": "YVP",
    "icao": "CYVP",
    "lat": 58.09609985,
    "long": -68.42690277
  },
  {
    "id": 155,
    "name": "Norman Wells Airport",
    "city": "Norman Wells",
    "country": "Canada",
    "iata": "YVQ",
    "icao": "CYVQ",
    "lat": 65.28160095,
    "long": -126.7979965
  },
  {
    "id": 156,
    "name": "Vancouver International Airport",
    "city": "Vancouver",
    "country": "Canada",
    "iata": "YVR",
    "icao": "CYVR",
    "lat": 49.19390106,
    "long": -123.1839981
  },
  {
    "id": 157,
    "name": "Buffalo Narrows Airport",
    "city": "Buffalo Narrows",
    "country": "Canada",
    "iata": "YVT",
    "icao": "CYVT",
    "lat": 55.84189987,
    "long": -108.4179993
  },
  {
    "id": 158,
    "name": "Wiarton Airport",
    "city": "Wiarton",
    "country": "Canada",
    "iata": "YVV",
    "icao": "CYVV",
    "lat": 44.7458,
    "long": -81.107201
  },
  {
    "id": 159,
    "name": "Petawawa Airport",
    "city": "Petawawa",
    "country": "Canada",
    "iata": "YWA",
    "icao": "CYWA",
    "lat": 45.95220184,
    "long": -77.31919861
  },
  {
    "id": 160,
    "name": "Winnipeg / James Armstrong Richardson International Airport",
    "city": "Winnipeg",
    "country": "Canada",
    "iata": "YWG",
    "icao": "CYWG",
    "lat": 49.90999985,
    "long": -97.23989868
  },
  {
    "id": 161,
    "name": "Wabush Airport",
    "city": "Wabush",
    "country": "Canada",
    "iata": "YWK",
    "icao": "CYWK",
    "lat": 52.9219017,
    "long": -66.86440277
  },
  {
    "id": 162,
    "name": "Williams Lake Airport",
    "city": "Williams Lake",
    "country": "Canada",
    "iata": "YWL",
    "icao": "CYWL",
    "lat": 52.18310165,
    "long": -122.0540009
  },
  {
    "id": 163,
    "name": "Wrigley Airport",
    "city": "Wrigley",
    "country": "Canada",
    "iata": "YWY",
    "icao": "CYWY",
    "lat": 63.20940018,
    "long": -123.4369965
  },
  {
    "id": 164,
    "name": "Cranbrook/Canadian Rockies International Airport",
    "city": "Cranbrook",
    "country": "Canada",
    "iata": "YXC",
    "icao": "CYXC",
    "lat": 49.6108017,
    "long": -115.7819977
  },
  {
    "id": 165,
    "name": "Edmonton City Centre (Blatchford Field) Airport",
    "city": "Edmonton",
    "country": "Canada",
    "iata": "YXD",
    "icao": "CYXD",
    "lat": 53.57249832,
    "long": -113.5210037
  },
  {
    "id": 166,
    "name": "Saskatoon John G. Diefenbaker International Airport",
    "city": "Saskatoon",
    "country": "Canada",
    "iata": "YXE",
    "icao": "CYXE",
    "lat": 52.17079926,
    "long": -106.6999969
  },
  {
    "id": 167,
    "name": "Medicine Hat Airport",
    "city": "Medicine Hat",
    "country": "Canada",
    "iata": "YXH",
    "icao": "CYXH",
    "lat": 50.01890182,
    "long": -110.7210007
  },
  {
    "id": 168,
    "name": "Fort St John Airport",
    "city": "Fort Saint John",
    "country": "Canada",
    "iata": "YXJ",
    "icao": "CYXJ",
    "lat": 56.23809814,
    "long": -120.7399979
  },
  {
    "id": 169,
    "name": "Sioux Lookout Airport",
    "city": "Sioux Lookout",
    "country": "Canada",
    "iata": "YXL",
    "icao": "CYXL",
    "lat": 50.11389923,
    "long": -91.90529633
  },
  {
    "id": 170,
    "name": "Pangnirtung Airport",
    "city": "Pangnirtung",
    "country": "Canada",
    "iata": "YXP",
    "icao": "CYXP",
    "lat": 66.14499664,
    "long": -65.71360016
  },
  {
    "id": 171,
    "name": "Earlton (Timiskaming Regional) Airport",
    "city": "Earlton",
    "country": "Canada",
    "iata": "YXR",
    "icao": "CYXR",
    "lat": 47.69740065,
    "long": -79.84734535
  },
  {
    "id": 172,
    "name": "Prince George Airport",
    "city": "Prince George",
    "country": "Canada",
    "iata": "YXS",
    "icao": "CYXS",
    "lat": 53.88940048,
    "long": -122.6790009
  },
  {
    "id": 173,
    "name": "Northwest Regional Airport Terrace-Kitimat",
    "city": "Terrace",
    "country": "Canada",
    "iata": "YXT",
    "icao": "CYXT",
    "lat": 54.468498,
    "long": -128.576009
  },
  {
    "id": 174,
    "name": "London Airport",
    "city": "London",
    "country": "Canada",
    "iata": "YXU",
    "icao": "CYXU",
    "lat": 43.035599,
    "long": -81.1539
  },
  {
    "id": 175,
    "name": "Abbotsford Airport",
    "city": "Abbotsford",
    "country": "Canada",
    "iata": "YXX",
    "icao": "CYXX",
    "lat": 49.02529907,
    "long": -122.3610001
  },
  {
    "id": 176,
    "name": "Whitehorse / Erik Nielsen International Airport",
    "city": "Whitehorse",
    "country": "Canada",
    "iata": "YXY",
    "icao": "CYXY",
    "lat": 60.70959854,
    "long": -135.0670013
  },
  {
    "id": 177,
    "name": "North Bay Jack Garland Airport",
    "city": "North Bay",
    "country": "Canada",
    "iata": "YYB",
    "icao": "CYYB",
    "lat": 46.363602,
    "long": -79.422798
  },
  {
    "id": 178,
    "name": "Calgary International Airport",
    "city": "Calgary",
    "country": "Canada",
    "iata": "YYC",
    "icao": "CYYC",
    "lat": 51.11389923,
    "long": -114.0199966
  },
  {
    "id": 179,
    "name": "Smithers Airport",
    "city": "Smithers",
    "country": "Canada",
    "iata": "YYD",
    "icao": "CYYD",
    "lat": 54.8246994,
    "long": -127.1829987
  },
  {
    "id": 180,
    "name": "Fort Nelson Airport",
    "city": "Fort Nelson",
    "country": "Canada",
    "iata": "YYE",
    "icao": "CYYE",
    "lat": 58.83639908,
    "long": -122.5970001
  },
  {
    "id": 181,
    "name": "Penticton Airport",
    "city": "Penticton",
    "country": "Canada",
    "iata": "YYF",
    "icao": "CYYF",
    "lat": 49.46310043,
    "long": -119.6019974
  },
  {
    "id": 182,
    "name": "Charlottetown Airport",
    "city": "Charlottetown",
    "country": "Canada",
    "iata": "YYG",
    "icao": "CYYG",
    "lat": 46.29000092,
    "long": -63.12110138
  },
  {
    "id": 183,
    "name": "Taloyoak Airport",
    "city": "Spence Bay",
    "country": "Canada",
    "iata": "YYH",
    "icao": "CYYH",
    "lat": 69.54669952,
    "long": -93.5766983
  },
  {
    "id": 184,
    "name": "Victoria International Airport",
    "city": "Victoria",
    "country": "Canada",
    "iata": "YYJ",
    "icao": "CYYJ",
    "lat": 48.64690018,
    "long": -123.4260025
  },
  {
    "id": 185,
    "name": "Lynn Lake Airport",
    "city": "Lynn Lake",
    "country": "Canada",
    "iata": "YYL",
    "icao": "CYYL",
    "lat": 56.86389923,
    "long": -101.0759964
  },
  {
    "id": 186,
    "name": "Swift Current Airport",
    "city": "Swift Current",
    "country": "Canada",
    "iata": "YYN",
    "icao": "CYYN",
    "lat": 50.29190063,
    "long": -107.6910019
  },
  {
    "id": 187,
    "name": "Churchill Airport",
    "city": "Churchill",
    "country": "Canada",
    "iata": "YYQ",
    "icao": "CYYQ",
    "lat": 58.73920059,
    "long": -94.06500244
  },
  {
    "id": 188,
    "name": "Goose Bay Airport",
    "city": "Goose Bay",
    "country": "Canada",
    "iata": "YYR",
    "icao": "CYYR",
    "lat": 53.31919861,
    "long": -60.42580032
  },
  {
    "id": 189,
    "name": "St. John's International Airport",
    "city": "St. John's",
    "country": "Canada",
    "iata": "YYT",
    "icao": "CYYT",
    "lat": 47.61859894,
    "long": -52.75189972
  },
  {
    "id": 190,
    "name": "Kapuskasing Airport",
    "city": "Kapuskasing",
    "country": "Canada",
    "iata": "YYU",
    "icao": "CYYU",
    "lat": 49.41389847,
    "long": -82.46749878
  },
  {
    "id": 191,
    "name": "Armstrong Airport",
    "city": "Armstrong",
    "country": "Canada",
    "iata": "YYW",
    "icao": "CYYW",
    "lat": 50.29029846,
    "long": -88.90969849
  },
  {
    "id": 192,
    "name": "Mont Joli Airport",
    "city": "Mont Joli",
    "country": "Canada",
    "iata": "YYY",
    "icao": "CYYY",
    "lat": 48.60860062,
    "long": -68.20809937
  },
  {
    "id": 193,
    "name": "Lester B. Pearson International Airport",
    "city": "Toronto",
    "country": "Canada",
    "iata": "YYZ",
    "icao": "CYYZ",
    "lat": 43.67720032,
    "long": -79.63059998
  },
  {
    "id": 194,
    "name": "Downsview Airport",
    "city": "Toronto",
    "country": "Canada",
    "iata": "YZD",
    "icao": "CYZD",
    "lat": 43.74250031,
    "long": -79.46559906
  },
  {
    "id": 195,
    "name": "Gore Bay Manitoulin Airport",
    "city": "Gore Bay",
    "country": "Canada",
    "iata": "YZE",
    "icao": "CYZE",
    "lat": 45.88529968,
    "long": -82.56780243
  },
  {
    "id": 196,
    "name": "Yellowknife Airport",
    "city": "Yellowknife",
    "country": "Canada",
    "iata": "YZF",
    "icao": "CYZF",
    "lat": 62.46279907,
    "long": -114.4400024
  },
  {
    "id": 197,
    "name": "Slave Lake Airport",
    "city": "Slave Lake",
    "country": "Canada",
    "iata": "YZH",
    "icao": "CYZH",
    "lat": 55.29309845,
    "long": -114.7770004
  },
  {
    "id": 198,
    "name": "Sandspit Airport",
    "city": "Sandspit",
    "country": "Canada",
    "iata": "YZP",
    "icao": "CYZP",
    "lat": 53.25429916,
    "long": -131.8139954
  },
  {
    "id": 199,
    "name": "Chris Hadfield Airport",
    "city": "Sarnia",
    "country": "Canada",
    "iata": "YZR",
    "icao": "CYZR",
    "lat": 42.99940109,
    "long": -82.30889893
  },
  {
    "id": 200,
    "name": "Port Hardy Airport",
    "city": "Port Hardy",
    "country": "Canada",
    "iata": "YZT",
    "icao": "CYZT",
    "lat": 50.68059921,
    "long": -127.3669968
  },
  {
    "id": 201,
    "name": "Whitecourt Airport",
    "city": "Whitecourt",
    "country": "Canada",
    "iata": "YZU",
    "icao": "CYZU",
    "lat": 54.14390182,
    "long": -115.7870026
  },
  {
    "id": 202,
    "name": "Sept-Îles Airport",
    "city": "Sept-iles",
    "country": "Canada",
    "iata": "YZV",
    "icao": "CYZV",
    "lat": 50.22330093,
    "long": -66.26560211
  },
  {
    "id": 203,
    "name": "Teslin Airport",
    "city": "Teslin",
    "country": "Canada",
    "iata": "YZW",
    "icao": "CYZW",
    "lat": 60.17279816,
    "long": -132.7429962
  },
  {
    "id": 204,
    "name": "CFB Greenwood",
    "city": "Greenwood",
    "country": "Canada",
    "iata": "YZX",
    "icao": "CYZX",
    "lat": 44.9844017,
    "long": -64.91690063
  },
  {
    "id": 205,
    "name": "Faro Airport",
    "city": "Faro",
    "country": "Canada",
    "iata": "ZFA",
    "icao": "CZFA",
    "lat": 62.20750046,
    "long": -133.3760071
  },
  {
    "id": 206,
    "name": "Fort Mcpherson Airport",
    "city": "Fort Mcpherson",
    "country": "Canada",
    "iata": "ZFM",
    "icao": "CZFM",
    "lat": 67.40750122,
    "long": -134.8609924
  },
  {
    "id": 207,
    "name": "Blida Airport",
    "city": "Blida",
    "country": "Algeria",
    "iata": "QLD",
    "icao": "DAAB",
    "lat": 36.50360107,
    "long": 2.814169884
  },
  {
    "id": 208,
    "name": "Bou Saada Airport",
    "city": "Bou Saada",
    "country": "Algeria",
    "iata": "BUJ",
    "icao": "DAAD",
    "lat": 35.33250046,
    "long": 4.206389904
  },
  {
    "id": 209,
    "name": "Soummam Airport",
    "city": "Bejaja",
    "country": "Algeria",
    "iata": "BJA",
    "icao": "DAAE",
    "lat": 36.7120018,
    "long": 5.069920063
  },
  {
    "id": 210,
    "name": "Houari Boumediene Airport",
    "city": "Algier",
    "country": "Algeria",
    "iata": "ALG",
    "icao": "DAAG",
    "lat": 36.69100189,
    "long": 3.215409994
  },
  {
    "id": 211,
    "name": "Djanet Inedbirene Airport",
    "city": "Djanet",
    "country": "Algeria",
    "iata": "DJG",
    "icao": "DAAJ",
    "lat": 24.292801,
    "long": 9.45244
  },
  {
    "id": 212,
    "name": "Boufarik Airport",
    "city": "Boufarik",
    "country": "Algeria",
    "iata": "",
    "icao": "DAAK",
    "lat": 36.545799,
    "long": 2.87611
  },
  {
    "id": 213,
    "name": "Reggane Airport",
    "city": "Reggan",
    "country": "Algeria",
    "iata": "",
    "icao": "DAAN",
    "lat": 26.7101,
    "long": 0.285647
  },
  {
    "id": 214,
    "name": "Illizi Takhamalt Airport",
    "city": "Illizi",
    "country": "Algeria",
    "iata": "VVZ",
    "icao": "DAAP",
    "lat": 26.7234993,
    "long": 8.622650146
  },
  {
    "id": 215,
    "name": "Ain Oussera Airport",
    "city": "Ain Oussera",
    "country": "Algeria",
    "iata": "",
    "icao": "DAAQ",
    "lat": 35.52539825,
    "long": 2.878710032
  },
  {
    "id": 216,
    "name": "Aguenar – Hadj Bey Akhamok Airport",
    "city": "Tamanrasset",
    "country": "Algeria",
    "iata": "TMR",
    "icao": "DAAT",
    "lat": 22.81150055,
    "long": 5.451079845
  },
  {
    "id": 217,
    "name": "Jijel Ferhat Abbas Airport",
    "city": "Jijel",
    "country": "Algeria",
    "iata": "GJL",
    "icao": "DAAV",
    "lat": 36.79510117,
    "long": 5.87361002
  },
  {
    "id": 218,
    "name": "Mecheria Airport",
    "city": "Mecheria",
    "country": "Algeria",
    "iata": "MZW",
    "icao": "DAAY",
    "lat": 33.53590012,
    "long": -0.242353007
  },
  {
    "id": 219,
    "name": "Relizane Airport",
    "city": "Relizane",
    "country": "Algeria",
    "iata": "",
    "icao": "DAAZ",
    "lat": 35.752201,
    "long": 0.626272
  },
  {
    "id": 220,
    "name": "Rabah Bitat Airport",
    "city": "Annaba",
    "country": "Algeria",
    "iata": "AAE",
    "icao": "DABB",
    "lat": 36.822201,
    "long": 7.809174
  },
  {
    "id": 221,
    "name": "Mohamed Boudiaf International Airport",
    "city": "Constantine",
    "country": "Algeria",
    "iata": "CZL",
    "icao": "DABC",
    "lat": 36.27600098,
    "long": 6.620389938
  },
  {
    "id": 222,
    "name": "Cheikh Larbi Tébessi Airport",
    "city": "Tebessa",
    "country": "Algeria",
    "iata": "TEE",
    "icao": "DABS",
    "lat": 35.43159866,
    "long": 8.12071991
  },
  {
    "id": 224,
    "name": "Hassi R'Mel Airport",
    "city": "Tilrempt",
    "country": "Algeria",
    "iata": "HRM",
    "icao": "DAFH",
    "lat": 32.93040085,
    "long": 3.311539888
  },
  {
    "id": 225,
    "name": "Bou Chekif Airport",
    "city": "Tiaret",
    "country": "Algeria",
    "iata": "TID",
    "icao": "DAOB",
    "lat": 35.34109879,
    "long": 1.463150024
  },
  {
    "id": 226,
    "name": "Bou Sfer Airport",
    "city": "Bou Sfer",
    "country": "Algeria",
    "iata": "",
    "icao": "DAOE",
    "lat": 35.73540115,
    "long": -0.805388987
  },
  {
    "id": 227,
    "name": "Tindouf Airport",
    "city": "Tindouf",
    "country": "Algeria",
    "iata": "TIN",
    "icao": "DAOF",
    "lat": 27.7003994,
    "long": -8.167099953
  },
  {
    "id": 228,
    "name": "Ech Cheliff Airport",
    "city": "Ech-cheliff",
    "country": "Algeria",
    "iata": "CFK",
    "icao": "DAOI",
    "lat": 36.21269989,
    "long": 1.331769943
  },
  {
    "id": 229,
    "name": "Tafaraoui Airport",
    "city": "Oran",
    "country": "Algeria",
    "iata": "TAF",
    "icao": "DAOL",
    "lat": 35.54240036,
    "long": -0.532278001
  },
  {
    "id": 230,
    "name": "Zenata – Messali El Hadj Airport",
    "city": "Tlemcen",
    "country": "Algeria",
    "iata": "TLM",
    "icao": "DAON",
    "lat": 35.01670074,
    "long": -1.450000048
  },
  {
    "id": 231,
    "name": "Es Senia Airport",
    "city": "Oran",
    "country": "Algeria",
    "iata": "ORN",
    "icao": "DAOO",
    "lat": 35.62390137,
    "long": -0.621182978
  },
  {
    "id": 232,
    "name": "Sidi Bel Abbes Airport",
    "city": "Sidi Bel Abbes",
    "country": "Algeria",
    "iata": "BFW",
    "icao": "DAOS",
    "lat": 35.17179871,
    "long": -0.593275011
  },
  {
    "id": 233,
    "name": "Ghriss Airport",
    "city": "Ghriss",
    "country": "Algeria",
    "iata": "MUW",
    "icao": "DAOV",
    "lat": 35.20769882,
    "long": 0.147141993
  },
  {
    "id": 234,
    "name": "Touat Cheikh Sidi Mohamed Belkebir Airport",
    "city": "Adrar",
    "country": "Algeria",
    "iata": "AZR",
    "icao": "DAUA",
    "lat": 27.83760071,
    "long": -0.186414003
  },
  {
    "id": 235,
    "name": "Biskra Airport",
    "city": "Biskra",
    "country": "Algeria",
    "iata": "BSK",
    "icao": "DAUB",
    "lat": 34.79330063,
    "long": 5.738230228
  },
  {
    "id": 236,
    "name": "El Golea Airport",
    "city": "El Golea",
    "country": "Algeria",
    "iata": "ELG",
    "icao": "DAUE",
    "lat": 30.57130051,
    "long": 2.859590054
  },
  {
    "id": 237,
    "name": "Noumérat - Moufdi Zakaria Airport",
    "city": "Ghardaia",
    "country": "Algeria",
    "iata": "GHA",
    "icao": "DAUG",
    "lat": 32.38410187,
    "long": 3.79411006
  },
  {
    "id": 238,
    "name": "Oued Irara Airport",
    "city": "Hassi Messaoud",
    "country": "Algeria",
    "iata": "HME",
    "icao": "DAUH",
    "lat": 31.67300034,
    "long": 6.140439987
  },
  {
    "id": 239,
    "name": "In Salah Airport",
    "city": "In Salah",
    "country": "Algeria",
    "iata": "INZ",
    "icao": "DAUI",
    "lat": 27.25099945,
    "long": 2.512020111
  },
  {
    "id": 240,
    "name": "Touggourt Sidi Madhi Airport",
    "city": "Touggourt",
    "country": "Algeria",
    "iata": "TGR",
    "icao": "DAUK",
    "lat": 33.06779861,
    "long": 6.088669777
  },
  {
    "id": 241,
    "name": "Laghouat Airport",
    "city": "Laghouat",
    "country": "Algeria",
    "iata": "LOO",
    "icao": "DAUL",
    "lat": 33.76440048,
    "long": 2.928339958
  },
  {
    "id": 242,
    "name": "Timimoun Airport",
    "city": "Timimoun",
    "country": "Algeria",
    "iata": "TMX",
    "icao": "DAUT",
    "lat": 29.2371006,
    "long": 0.276033014
  },
  {
    "id": 243,
    "name": "Ain el Beida Airport",
    "city": "Ouargla",
    "country": "Algeria",
    "iata": "OGX",
    "icao": "DAUU",
    "lat": 31.91720009,
    "long": 5.412779808
  },
  {
    "id": 244,
    "name": "In Aménas Airport",
    "city": "Zarzaitine",
    "country": "Algeria",
    "iata": "IAM",
    "icao": "DAUZ",
    "lat": 28.0515,
    "long": 9.64291
  },
  {
    "id": 245,
    "name": "Cadjehoun Airport",
    "city": "Cotonou",
    "country": "Benin",
    "iata": "COO",
    "icao": "DBBB",
    "lat": 6.357230186,
    "long": 2.384350061
  },
  {
    "id": 246,
    "name": "Ouagadougou Airport",
    "city": "Ouagadougou",
    "country": "Burkina Faso",
    "iata": "OUA",
    "icao": "DFFD",
    "lat": 12.3532,
    "long": -1.51242
  },
  {
    "id": 247,
    "name": "Bobo Dioulasso Airport",
    "city": "Bobo-dioulasso",
    "country": "Burkina Faso",
    "iata": "BOY",
    "icao": "DFOO",
    "lat": 11.16009998,
    "long": -4.33096981
  },
  {
    "id": 248,
    "name": "Kotoka International Airport",
    "city": "Accra",
    "country": "Ghana",
    "iata": "ACC",
    "icao": "DGAA",
    "lat": 5.6051898,
    "long": -0.166786
  },
  {
    "id": 249,
    "name": "Tamale Airport",
    "city": "Tamale",
    "country": "Ghana",
    "iata": "TML",
    "icao": "DGLE",
    "lat": 9.557189941,
    "long": -0.863214016
  },
  {
    "id": 250,
    "name": "Wa Airport",
    "city": "Wa",
    "country": "Ghana",
    "iata": "",
    "icao": "DGLW",
    "lat": 10.08269978,
    "long": -2.507689953
  },
  {
    "id": 251,
    "name": "Sunyani Airport",
    "city": "Sunyani",
    "country": "Ghana",
    "iata": "NYI",
    "icao": "DGSN",
    "lat": 7.361830235,
    "long": -2.328759909
  },
  {
    "id": 252,
    "name": "Takoradi Airport",
    "city": "Takoradi",
    "country": "Ghana",
    "iata": "TKD",
    "icao": "DGTK",
    "lat": 4.89605999,
    "long": -1.774760008
  },
  {
    "id": 253,
    "name": "Port Bouet Airport",
    "city": "Abidjan",
    "country": "Cote d'Ivoire",
    "iata": "ABJ",
    "icao": "DIAP",
    "lat": 5.261390209,
    "long": -3.926290035
  },
  {
    "id": 254,
    "name": "Bouaké Airport",
    "city": "Bouake",
    "country": "Cote d'Ivoire",
    "iata": "BYK",
    "icao": "DIBK",
    "lat": 7.738800049,
    "long": -5.07366991
  },
  {
    "id": 255,
    "name": "Daloa Airport",
    "city": "Daloa",
    "country": "Cote d'Ivoire",
    "iata": "DJO",
    "icao": "DIDL",
    "lat": 6.792809963,
    "long": -6.473189831
  },
  {
    "id": 256,
    "name": "Korhogo Airport",
    "city": "Korhogo",
    "country": "Cote d'Ivoire",
    "iata": "HGO",
    "icao": "DIKO",
    "lat": 9.387180328,
    "long": -5.556660175
  },
  {
    "id": 257,
    "name": "Man Airport",
    "city": "Man",
    "country": "Cote d'Ivoire",
    "iata": "MJC",
    "icao": "DIMN",
    "lat": 7.272069931,
    "long": -7.587359905
  },
  {
    "id": 258,
    "name": "San Pedro Airport",
    "city": "San Pedro",
    "country": "Cote d'Ivoire",
    "iata": "SPY",
    "icao": "DISP",
    "lat": 4.746719837,
    "long": -6.660820007
  },
  {
    "id": 259,
    "name": "Yamoussoukro Airport",
    "city": "Yamoussoukro",
    "country": "Cote d'Ivoire",
    "iata": "ASK",
    "icao": "DIYO",
    "lat": 6.903170109,
    "long": -5.365580082
  },
  {
    "id": 260,
    "name": "Nnamdi Azikiwe International Airport",
    "city": "Abuja",
    "country": "Nigeria",
    "iata": "ABV",
    "icao": "DNAA",
    "lat": 9.006790161,
    "long": 7.263169765
  },
  {
    "id": 261,
    "name": "Akure Airport",
    "city": "Akure",
    "country": "Nigeria",
    "iata": "AKR",
    "icao": "DNAK",
    "lat": 7.246739864,
    "long": 5.301010132
  },
  {
    "id": 262,
    "name": "Benin Airport",
    "city": "Benin",
    "country": "Nigeria",
    "iata": "BNI",
    "icao": "DNBE",
    "lat": 6.316979885,
    "long": 5.599500179
  },
  {
    "id": 263,
    "name": "Margaret Ekpo International Airport",
    "city": "Calabar",
    "country": "Nigeria",
    "iata": "CBQ",
    "icao": "DNCA",
    "lat": 4.976019859,
    "long": 8.347200394
  },
  {
    "id": 264,
    "name": "Akanu Ibiam International Airport",
    "city": "Enugu",
    "country": "Nigeria",
    "iata": "ENU",
    "icao": "DNEN",
    "lat": 6.474269867,
    "long": 7.56196022
  },
  {
    "id": 265,
    "name": "Gusau Airport",
    "city": "Gusau",
    "country": "Nigeria",
    "iata": "",
    "icao": "DNGU",
    "lat": 12.1717,
    "long": 6.69611
  },
  {
    "id": 266,
    "name": "Ibadan Airport",
    "city": "Ibadan",
    "country": "Nigeria",
    "iata": "IBA",
    "icao": "DNIB",
    "lat": 7.362460136,
    "long": 3.978329897
  },
  {
    "id": 267,
    "name": "Ilorin International Airport",
    "city": "Ilorin",
    "country": "Nigeria",
    "iata": "ILR",
    "icao": "DNIL",
    "lat": 8.440210342,
    "long": 4.493919849
  },
  {
    "id": 268,
    "name": "Yakubu Gowon Airport",
    "city": "Jos",
    "country": "Nigeria",
    "iata": "JOS",
    "icao": "DNJO",
    "lat": 9.639829636,
    "long": 8.869050026
  },
  {
    "id": 269,
    "name": "Kaduna Airport",
    "city": "Kaduna",
    "country": "Nigeria",
    "iata": "KAD",
    "icao": "DNKA",
    "lat": 10.6960001,
    "long": 7.320109844
  },
  {
    "id": 270,
    "name": "Mallam Aminu International Airport",
    "city": "Kano",
    "country": "Nigeria",
    "iata": "KAN",
    "icao": "DNKN",
    "lat": 12.0476,
    "long": 8.52462
  },
  {
    "id": 271,
    "name": "Maiduguri International Airport",
    "city": "Maiduguri",
    "country": "Nigeria",
    "iata": "MIU",
    "icao": "DNMA",
    "lat": 11.85529995,
    "long": 13.08090019
  },
  {
    "id": 272,
    "name": "Makurdi Airport",
    "city": "Makurdi",
    "country": "Nigeria",
    "iata": "MDI",
    "icao": "DNMK",
    "lat": 7.70388,
    "long": 8.61394
  },
  {
    "id": 273,
    "name": "Murtala Muhammed International Airport",
    "city": "Lagos",
    "country": "Nigeria",
    "iata": "LOS",
    "icao": "DNMM",
    "lat": 6.577370167,
    "long": 3.321160078
  },
  {
    "id": 274,
    "name": "Minna Airport",
    "city": "Minna",
    "country": "Nigeria",
    "iata": "MXJ",
    "icao": "DNMN",
    "lat": 9.652170181,
    "long": 6.462259769
  },
  {
    "id": 275,
    "name": "Port Harcourt International Airport",
    "city": "Port Hartcourt",
    "country": "Nigeria",
    "iata": "PHC",
    "icao": "DNPO",
    "lat": 5.015490055,
    "long": 6.949590206
  },
  {
    "id": 276,
    "name": "Sadiq Abubakar III International Airport",
    "city": "Sokoto",
    "country": "Nigeria",
    "iata": "SKO",
    "icao": "DNSO",
    "lat": 12.91629982,
    "long": 5.207190037
  },
  {
    "id": 277,
    "name": "Yola Airport",
    "city": "Yola",
    "country": "Nigeria",
    "iata": "YOL",
    "icao": "DNYO",
    "lat": 9.25755024,
    "long": 12.43039989
  },
  {
    "id": 278,
    "name": "Zaria Airport",
    "city": "Zaria",
    "country": "Nigeria",
    "iata": "ZAR",
    "icao": "DNZA",
    "lat": 11.1302,
    "long": 7.68581
  },
  {
    "id": 279,
    "name": "Maradi Airport",
    "city": "Maradi",
    "country": "Niger",
    "iata": "MFQ",
    "icao": "DRRM",
    "lat": 13.50249958,
    "long": 7.126749992
  },
  {
    "id": 280,
    "name": "Diori Hamani International Airport",
    "city": "Niamey",
    "country": "Niger",
    "iata": "NIM",
    "icao": "DRRN",
    "lat": 13.4815,
    "long": 2.18361
  },
  {
    "id": 281,
    "name": "Tahoua Airport",
    "city": "Tahoua",
    "country": "Niger",
    "iata": "THZ",
    "icao": "DRRT",
    "lat": 14.8757,
    "long": 5.265359879
  },
  {
    "id": 282,
    "name": "Mano Dayak International Airport",
    "city": "Agadez",
    "country": "Niger",
    "iata": "AJY",
    "icao": "DRZA",
    "lat": 16.9659996,
    "long": 8.000109673
  },
  {
    "id": 283,
    "name": "Dirkou Airport",
    "city": "Dirkou",
    "country": "Niger",
    "iata": "",
    "icao": "DRZD",
    "lat": 18.96870041,
    "long": 12.86870003
  },
  {
    "id": 284,
    "name": "Diffa Airport",
    "city": "Diffa",
    "country": "Niger",
    "iata": "",
    "icao": "DRZF",
    "lat": 13.37290001,
    "long": 12.6267004
  },
  {
    "id": 285,
    "name": "Zinder Airport",
    "city": "Zinder",
    "country": "Niger",
    "iata": "ZND",
    "icao": "DRZR",
    "lat": 13.77900028,
    "long": 8.98375988
  },
  {
    "id": 286,
    "name": "Monastir Habib Bourguiba International Airport",
    "city": "Monastir",
    "country": "Tunisia",
    "iata": "MIR",
    "icao": "DTMB",
    "lat": 35.7580986,
    "long": 10.75469971
  },
  {
    "id": 287,
    "name": "Tunis Carthage International Airport",
    "city": "Tunis",
    "country": "Tunisia",
    "iata": "TUN",
    "icao": "DTTA",
    "lat": 36.85100174,
    "long": 10.22719955
  },
  {
    "id": 288,
    "name": "Sidi Ahmed Air Base",
    "city": "Bizerte",
    "country": "Tunisia",
    "iata": "",
    "icao": "DTTB",
    "lat": 37.245398,
    "long": 9.79145
  },
  {
    "id": 289,
    "name": "Remada Air Base",
    "city": "Remada",
    "country": "Tunisia",
    "iata": "",
    "icao": "DTTD",
    "lat": 32.30619812,
    "long": 10.38210011
  },
  {
    "id": 290,
    "name": "Gafsa Ksar International Airport",
    "city": "Gafsa",
    "country": "Tunisia",
    "iata": "GAF",
    "icao": "DTTF",
    "lat": 34.42200089,
    "long": 8.822500229
  },
  {
    "id": 291,
    "name": "Gabès Matmata International Airport",
    "city": "Gabes",
    "country": "Tunisia",
    "iata": "GAE",
    "icao": "DTTG",
    "lat": 33.87689972,
    "long": 10.10330009
  },
  {
    "id": 292,
    "name": "Borj El Amri Airport",
    "city": "Bordj El Amri",
    "country": "Tunisia",
    "iata": "",
    "icao": "DTTI",
    "lat": 36.72129822,
    "long": 9.943149567
  },
  {
    "id": 293,
    "name": "Djerba Zarzis International Airport",
    "city": "Djerba",
    "country": "Tunisia",
    "iata": "DJE",
    "icao": "DTTJ",
    "lat": 33.875,
    "long": 10.7755003
  },
  {
    "id": 294,
    "name": "El Borma Airport",
    "city": "El Borma",
    "country": "Tunisia",
    "iata": "EBM",
    "icao": "DTTR",
    "lat": 31.70429993,
    "long": 9.254619598
  },
  {
    "id": 295,
    "name": "Sfax Thyna International Airport",
    "city": "Sfax",
    "country": "Tunisia",
    "iata": "SFA",
    "icao": "DTTX",
    "lat": 34.7179985,
    "long": 10.69099998
  },
  {
    "id": 296,
    "name": "Tozeur Nefta International Airport",
    "city": "Tozeur",
    "country": "Tunisia",
    "iata": "TOE",
    "icao": "DTTZ",
    "lat": 33.93970108,
    "long": 8.110560417
  },
  {
    "id": 297,
    "name": "Niamtougou International Airport",
    "city": "Niatougou",
    "country": "Togo",
    "iata": "LRL",
    "icao": "DXNG",
    "lat": 9.76733017,
    "long": 1.091249943
  },
  {
    "id": 298,
    "name": "Lomé-Tokoin Airport",
    "city": "Lome",
    "country": "Togo",
    "iata": "LFW",
    "icao": "DXXX",
    "lat": 6.165609837,
    "long": 1.254510045
  },
  {
    "id": 299,
    "name": "Antwerp International Airport (Deurne)",
    "city": "Antwerp",
    "country": "Belgium",
    "iata": "ANR",
    "icao": "EBAW",
    "lat": 51.18939972,
    "long": 4.460279942
  },
  {
    "id": 300,
    "name": "Beauvechain Air Base",
    "city": "Beauvechain",
    "country": "Belgium",
    "iata": "",
    "icao": "EBBE",
    "lat": 50.75859833,
    "long": 4.768330097
  },
  {
    "id": 301,
    "name": "Kleine Brogel Air Base",
    "city": "Kleine Brogel",
    "country": "Belgium",
    "iata": "",
    "icao": "EBBL",
    "lat": 51.168301,
    "long": 5.47
  },
  {
    "id": 302,
    "name": "Brussels Airport",
    "city": "Brussels",
    "country": "Belgium",
    "iata": "BRU",
    "icao": "EBBR",
    "lat": 50.90140152,
    "long": 4.48443985
  },
  {
    "id": 303,
    "name": "Jehonville Air Base",
    "city": "Bertrix",
    "country": "Belgium",
    "iata": "",
    "icao": "EBBX",
    "lat": 49.89170074,
    "long": 5.223889828
  },
  {
    "id": 304,
    "name": "Brussels South Charleroi Airport",
    "city": "Charleroi",
    "country": "Belgium",
    "iata": "CRL",
    "icao": "EBCI",
    "lat": 50.459202,
    "long": 4.45382
  },
  {
    "id": 305,
    "name": "Chièvres Air Base",
    "city": "Chievres",
    "country": "Belgium",
    "iata": "",
    "icao": "EBCV",
    "lat": 50.57580185,
    "long": 3.83100009
  },
  {
    "id": 306,
    "name": "Koksijde Air Base",
    "city": "Koksijde",
    "country": "Belgium",
    "iata": "",
    "icao": "EBFN",
    "lat": 51.09030151,
    "long": 2.652780056
  },
  {
    "id": 307,
    "name": "Florennes Air Base",
    "city": "Florennes",
    "country": "Belgium",
    "iata": "",
    "icao": "EBFS",
    "lat": 50.24330139,
    "long": 4.645830154
  },
  {
    "id": 308,
    "name": "Wevelgem Airport",
    "city": "Kortrijk-vevelgem",
    "country": "Belgium",
    "iata": "KJK",
    "icao": "EBKT",
    "lat": 50.81719971,
    "long": 3.20472002
  },
  {
    "id": 309,
    "name": "Liège Airport",
    "city": "Liege",
    "country": "Belgium",
    "iata": "LGG",
    "icao": "EBLG",
    "lat": 50.63740158,
    "long": 5.443220139
  },
  {
    "id": 310,
    "name": "Ostend-Bruges International Airport",
    "city": "Ostend",
    "country": "Belgium",
    "iata": "OST",
    "icao": "EBOS",
    "lat": 51.19889832,
    "long": 2.862220049
  },
  {
    "id": 311,
    "name": "Zutendaal Air Base",
    "city": "Zutendaal",
    "country": "Belgium",
    "iata": "",
    "icao": "EBSL",
    "lat": 50.94749832,
    "long": 5.590559959
  },
  {
    "id": 312,
    "name": "Brustem Airfield Sint Truiden",
    "city": "Sint-truiden",
    "country": "Belgium",
    "iata": "",
    "icao": "EBST",
    "lat": 50.791901,
    "long": 5.20167
  },
  {
    "id": 313,
    "name": "Saint Hubert Air Base",
    "city": "St.-hubert",
    "country": "Belgium",
    "iata": "",
    "icao": "EBSU",
    "lat": 50.03440094,
    "long": 5.440810204
  },
  {
    "id": 314,
    "name": "Ursel Air Base",
    "city": "Ursel",
    "country": "Belgium",
    "iata": "",
    "icao": "EBUL",
    "lat": 51.14419937,
    "long": 3.47555995
  },
  {
    "id": 315,
    "name": "Weelde Air Base",
    "city": "Weelde",
    "country": "Belgium",
    "iata": "",
    "icao": "EBWE",
    "lat": 51.39479828,
    "long": 4.960189819
  },
  {
    "id": 316,
    "name": "Zoersel (Oostmalle) Airfield",
    "city": "Zoersel",
    "country": "Belgium",
    "iata": "OBL",
    "icao": "EBZR",
    "lat": 51.264702,
    "long": 4.75333
  },
  {
    "id": 317,
    "name": "Flugplatz Bautzen",
    "city": "Bautzen",
    "country": "Germany",
    "iata": "",
    "icao": "EDAB",
    "lat": 51.193611,
    "long": 14.519722
  },
  {
    "id": 318,
    "name": "Altenburg-Nobitz Airport",
    "city": "Altenburg",
    "country": "Germany",
    "iata": "AOC",
    "icao": "EDAC",
    "lat": 50.981945,
    "long": 12.506389
  },
  {
    "id": 319,
    "name": "Dessau Airfield",
    "city": "Dessau",
    "country": "Germany",
    "iata": "",
    "icao": "EDAD",
    "lat": 51.831694,
    "long": 12.190962
  },
  {
    "id": 320,
    "name": "Eisenhüttenstadt Airfield",
    "city": "Eisenhuettenstadt",
    "country": "Germany",
    "iata": "",
    "icao": "EDAE",
    "lat": 52.195856,
    "long": 14.58753
  },
  {
    "id": 322,
    "name": "Großenhain Airport",
    "city": "Suhl",
    "country": "Germany",
    "iata": "",
    "icao": "EDAK",
    "lat": 51.30805588,
    "long": 13.5555563
  },
  {
    "id": 323,
    "name": "Merseburg Airport",
    "city": "Muehlhausen",
    "country": "Germany",
    "iata": "",
    "icao": "EDAM",
    "lat": 51.3630556,
    "long": 11.9408333
  },
  {
    "id": 324,
    "name": "Halle-Oppin Airport",
    "city": "Halle",
    "country": "Germany",
    "iata": "",
    "icao": "EDAQ",
    "lat": 51.552223,
    "long": 12.053889
  },
  {
    "id": 325,
    "name": "Riesa-Göhlis Airport",
    "city": "Riesa",
    "country": "Germany",
    "iata": "IES",
    "icao": "EDAU",
    "lat": 51.29360962,
    "long": 13.35611057
  },
  {
    "id": 326,
    "name": "Rechlin-Lärz Airport",
    "city": "Rechlin-laerz",
    "country": "Germany",
    "iata": "REB",
    "icao": "EDAX",
    "lat": 53.30638886,
    "long": 12.75222206
  },
  {
    "id": 327,
    "name": "Strausberg Airport",
    "city": "Strausberg",
    "country": "Germany",
    "iata": "",
    "icao": "EDAY",
    "lat": 52.58055496,
    "long": 13.91666698
  },
  {
    "id": 328,
    "name": "Schönhagen Airport",
    "city": "Schoenhagen",
    "country": "Germany",
    "iata": "QXH",
    "icao": "EDAZ",
    "lat": 52.203609,
    "long": 13.156389
  },
  {
    "id": 329,
    "name": "Barth Airport",
    "city": "Barth",
    "country": "Germany",
    "iata": "BBH",
    "icao": "EDBH",
    "lat": 54.338253,
    "long": 12.710515
  },
  {
    "id": 330,
    "name": "Jena-Schöngleina Airfield",
    "city": "Jena",
    "country": "Germany",
    "iata": "",
    "icao": "EDBJ",
    "lat": 50.915279,
    "long": 11.714444
  },
  {
    "id": 331,
    "name": "Kyritz Airport",
    "city": "Kyritz",
    "country": "Germany",
    "iata": "",
    "icao": "EDBK",
    "lat": 52.91888809,
    "long": 12.42527771
  },
  {
    "id": 332,
    "name": "Magdeburg \"City\" Airport",
    "city": "Magdeburg",
    "country": "Germany",
    "iata": "ZMG",
    "icao": "EDBM",
    "lat": 52.073612,
    "long": 11.626389
  },
  {
    "id": 333,
    "name": "Rothenburg/Görlitz Airport",
    "city": "Rothenburg/ol",
    "country": "Germany",
    "iata": "",
    "icao": "EDBR",
    "lat": 51.36333466,
    "long": 14.94999981
  },
  {
    "id": 334,
    "name": "Anklam Airfield",
    "city": "Anklam",
    "country": "Germany",
    "iata": "",
    "icao": "EDCA",
    "lat": 53.832779,
    "long": 13.668611
  },
  {
    "id": 335,
    "name": "Cottbus-Drewitz Airport",
    "city": "Cottbus",
    "country": "Germany",
    "iata": "CBU",
    "icao": "EDCD",
    "lat": 51.889442,
    "long": 14.531944
  },
  {
    "id": 336,
    "name": "Kamenz Airport",
    "city": "Kamenz",
    "country": "Germany",
    "iata": "",
    "icao": "EDCM",
    "lat": 51.29694366,
    "long": 14.12749958
  },
  {
    "id": 337,
    "name": "Berlin-Schönefeld Airport",
    "city": "Berlin",
    "country": "Germany",
    "iata": "SXF",
    "icao": "EDDB",
    "lat": 52.380001,
    "long": 13.5225
  },
  {
    "id": 338,
    "name": "Dresden Airport",
    "city": "Dresden",
    "country": "Germany",
    "iata": "DRS",
    "icao": "EDDC",
    "lat": 51.13280106,
    "long": 13.76720047
  },
  {
    "id": 339,
    "name": "Erfurt Airport",
    "city": "Erfurt",
    "country": "Germany",
    "iata": "ERF",
    "icao": "EDDE",
    "lat": 50.97980118,
    "long": 10.95810032
  },
  {
    "id": 340,
    "name": "Frankfurt am Main Airport",
    "city": "Frankfurt",
    "country": "Germany",
    "iata": "FRA",
    "icao": "EDDF",
    "lat": 50.033333,
    "long": 8.570556
  },
  {
    "id": 341,
    "name": "Münster Osnabrück Airport",
    "city": "Munster",
    "country": "Germany",
    "iata": "FMO",
    "icao": "EDDG",
    "lat": 52.13460159,
    "long": 7.684830189
  },
  {
    "id": 342,
    "name": "Hamburg Airport",
    "city": "Hamburg",
    "country": "Germany",
    "iata": "HAM",
    "icao": "EDDH",
    "lat": 53.63040161,
    "long": 9.988229752
  },
  {
    "id": 343,
    "name": "Berlin-Tempelhof International Airport",
    "city": "Berlin",
    "country": "Germany",
    "iata": "THF",
    "icao": "EDDI",
    "lat": 52.47299957,
    "long": 13.40390015
  },
  {
    "id": 344,
    "name": "Cologne Bonn Airport",
    "city": "Cologne",
    "country": "Germany",
    "iata": "CGN",
    "icao": "EDDK",
    "lat": 50.86589813,
    "long": 7.142739773
  },
  {
    "id": 345,
    "name": "Düsseldorf Airport",
    "city": "Duesseldorf",
    "country": "Germany",
    "iata": "DUS",
    "icao": "EDDL",
    "lat": 51.289501,
    "long": 6.76678
  },
  {
    "id": 346,
    "name": "Munich Airport",
    "city": "Munich",
    "country": "Germany",
    "iata": "MUC",
    "icao": "EDDM",
    "lat": 48.353802,
    "long": 11.7861
  },
  {
    "id": 347,
    "name": "Nuremberg Airport",
    "city": "Nuernberg",
    "country": "Germany",
    "iata": "NUE",
    "icao": "EDDN",
    "lat": 49.498699,
    "long": 11.078056
  },
  {
    "id": 348,
    "name": "Leipzig/Halle Airport",
    "city": "Leipzig",
    "country": "Germany",
    "iata": "LEJ",
    "icao": "EDDP",
    "lat": 51.423889,
    "long": 12.236389
  },
  {
    "id": 349,
    "name": "Saarbrücken Airport",
    "city": "Saarbruecken",
    "country": "Germany",
    "iata": "SCN",
    "icao": "EDDR",
    "lat": 49.21459961,
    "long": 7.109509945
  },
  {
    "id": 350,
    "name": "Stuttgart Airport",
    "city": "Stuttgart",
    "country": "Germany",
    "iata": "STR",
    "icao": "EDDS",
    "lat": 48.68989944,
    "long": 9.221960068
  },
  {
    "id": 351,
    "name": "Berlin-Tegel Airport",
    "city": "Berlin",
    "country": "Germany",
    "iata": "TXL",
    "icao": "EDDT",
    "lat": 52.5597,
    "long": 13.2877
  },
  {
    "id": 352,
    "name": "Hannover Airport",
    "city": "Hannover",
    "country": "Germany",
    "iata": "HAJ",
    "icao": "EDDV",
    "lat": 52.46110153,
    "long": 9.685079575
  },
  {
    "id": 353,
    "name": "Bremen Airport",
    "city": "Bremen",
    "country": "Germany",
    "iata": "BRE",
    "icao": "EDDW",
    "lat": 53.04750061,
    "long": 8.786669731
  },
  {
    "id": 354,
    "name": "Frankfurt-Egelsbach Airport",
    "city": "Egelsbach",
    "country": "Germany",
    "iata": "QEF",
    "icao": "EDFE",
    "lat": 49.959999,
    "long": 8.645833
  },
  {
    "id": 355,
    "name": "Frankfurt-Hahn Airport",
    "city": "Hahn",
    "country": "Germany",
    "iata": "HHN",
    "icao": "EDFH",
    "lat": 49.9487,
    "long": 7.26389
  },
  {
    "id": 356,
    "name": "Mannheim-City Airport",
    "city": "Mannheim",
    "country": "Germany",
    "iata": "MHG",
    "icao": "EDFM",
    "lat": 49.473057,
    "long": 8.514167
  },
  {
    "id": 357,
    "name": "Allendorf/Eder Airport",
    "city": "Allendorf",
    "country": "Germany",
    "iata": "",
    "icao": "EDFQ",
    "lat": 51.03499985,
    "long": 8.680832863
  },
  {
    "id": 358,
    "name": "Worms Airport",
    "city": "Worms",
    "country": "Germany",
    "iata": "",
    "icao": "EDFV",
    "lat": 49.606945,
    "long": 8.368333
  },
  {
    "id": 359,
    "name": "Mainz-Finthen Airport",
    "city": "Mainz",
    "country": "Germany",
    "iata": "",
    "icao": "EDFZ",
    "lat": 49.967499,
    "long": 8.147222
  },
  {
    "id": 360,
    "name": "Eisenach-Kindel Airport",
    "city": "Eisenach",
    "country": "Germany",
    "iata": "EIB",
    "icao": "EDGE",
    "lat": 50.991604,
    "long": 10.47973
  },
  {
    "id": 361,
    "name": "Siegerland Airport",
    "city": "Siegerland",
    "country": "Germany",
    "iata": "SGE",
    "icao": "EDGS",
    "lat": 50.70769882,
    "long": 8.082969666
  },
  {
    "id": 362,
    "name": "Hamburg-Finkenwerder Airport",
    "city": "Hamburg",
    "country": "Germany",
    "iata": "XFW",
    "icao": "EDHI",
    "lat": 53.53527832,
    "long": 9.83555603
  },
  {
    "id": 363,
    "name": "Kiel-Holtenau Airport",
    "city": "Kiel",
    "country": "Germany",
    "iata": "KEL",
    "icao": "EDHK",
    "lat": 54.37944412,
    "long": 10.14527798
  },
  {
    "id": 364,
    "name": "Lübeck Blankensee Airport",
    "city": "Luebeck",
    "country": "Germany",
    "iata": "LBC",
    "icao": "EDHL",
    "lat": 53.80540085,
    "long": 10.71920013
  },
  {
    "id": 365,
    "name": "Flugplatz Dahlemer Binz",
    "city": "Dahlemer Binz",
    "country": "Germany",
    "iata": "",
    "icao": "EDKV",
    "lat": 50.40555573,
    "long": 6.528889179
  },
  {
    "id": 366,
    "name": "Meinerzhagen Airport",
    "city": "Meinerzhagen",
    "country": "Germany",
    "iata": "",
    "icao": "EDKZ",
    "lat": 51.09999847,
    "long": 7.599999905
  },
  {
    "id": 367,
    "name": "Arnsberg-Menden Airport",
    "city": "Arnsberg",
    "country": "Germany",
    "iata": "",
    "icao": "EDLA",
    "lat": 51.48389053,
    "long": 7.898333073
  },
  {
    "id": 368,
    "name": "Essen Mulheim Airport",
    "city": "Essen",
    "country": "Germany",
    "iata": "ESS",
    "icao": "EDLE",
    "lat": 51.40230179,
    "long": 6.937329769
  },
  {
    "id": 369,
    "name": "Bielefeld Airport",
    "city": "Bielefeld",
    "country": "Germany",
    "iata": "BFE",
    "icao": "EDLI",
    "lat": 51.964722,
    "long": 8.544444
  },
  {
    "id": 370,
    "name": "Mönchengladbach Airport",
    "city": "Moenchengladbach",
    "country": "Germany",
    "iata": "MGL",
    "icao": "EDLN",
    "lat": 51.230278,
    "long": 6.504444
  },
  {
    "id": 371,
    "name": "Paderborn Lippstadt Airport",
    "city": "Paderborn",
    "country": "Germany",
    "iata": "PAD",
    "icao": "EDLP",
    "lat": 51.61410141,
    "long": 8.616319656
  },
  {
    "id": 372,
    "name": "Stadtlohn-Vreden Airport",
    "city": "Stadtlohn",
    "country": "Germany",
    "iata": "",
    "icao": "EDLS",
    "lat": 51.99583435,
    "long": 6.840556145
  },
  {
    "id": 373,
    "name": "Dortmund Airport",
    "city": "Dortmund",
    "country": "Germany",
    "iata": "DTM",
    "icao": "EDLW",
    "lat": 51.5182991,
    "long": 7.612239838
  },
  {
    "id": 374,
    "name": "Augsburg Airport",
    "city": "Augsburg",
    "country": "Germany",
    "iata": "AGB",
    "icao": "EDMA",
    "lat": 48.425278,
    "long": 10.931667
  },
  {
    "id": 375,
    "name": "Biberach a.d. Riß Airfield",
    "city": "Biberach",
    "country": "Germany",
    "iata": "",
    "icao": "EDMB",
    "lat": 48.111111,
    "long": 9.762778
  },
  {
    "id": 376,
    "name": "Eggenfelden Airport",
    "city": "Eggenfelden",
    "country": "Germany",
    "iata": "",
    "icao": "EDME",
    "lat": 48.39611053,
    "long": 12.72361088
  },
  {
    "id": 377,
    "name": "Mindelheim-Mattsies Airfield",
    "city": "Mindelheim",
    "country": "Germany",
    "iata": "",
    "icao": "EDMN",
    "lat": 48.106945,
    "long": 10.525
  },
  {
    "id": 378,
    "name": "Oberpfaffenhofen Airport",
    "city": "Oberpfaffenhofen",
    "country": "Germany",
    "iata": "OBF",
    "icao": "EDMO",
    "lat": 48.081402,
    "long": 11.2831
  },
  {
    "id": 379,
    "name": "Straubing Airport",
    "city": "Straubing",
    "country": "Germany",
    "iata": "RBM",
    "icao": "EDMS",
    "lat": 48.90083313,
    "long": 12.51666737
  },
  {
    "id": 380,
    "name": "Vilshofen Airport",
    "city": "Vilshofen",
    "country": "Germany",
    "iata": "",
    "icao": "EDMV",
    "lat": 48.63499832,
    "long": 13.19555569
  },
  {
    "id": 381,
    "name": "Leutkirch-Unterzeil Airport",
    "city": "Leutkirch",
    "country": "Germany",
    "iata": "",
    "icao": "EDNL",
    "lat": 47.85889053,
    "long": 10.01416683
  },
  {
    "id": 382,
    "name": "Friedrichshafen Airport",
    "city": "Friedrichshafen",
    "country": "Germany",
    "iata": "FDH",
    "icao": "EDNY",
    "lat": 47.67129898,
    "long": 9.511489868
  },
  {
    "id": 383,
    "name": "Schwerin Parchim Airport",
    "city": "Parchim",
    "country": "Germany",
    "iata": "SZW",
    "icao": "EDOP",
    "lat": 53.426998,
    "long": 11.7834
  },
  {
    "id": 384,
    "name": "Stendal-Borstel Airport",
    "city": "Stendal",
    "country": "Germany",
    "iata": "",
    "icao": "EDOV",
    "lat": 52.62888718,
    "long": 11.81861115
  },
  {
    "id": 385,
    "name": "Aalen-Heidenheim/Elchingen Airport",
    "city": "Aalen-heidenheim",
    "country": "Germany",
    "iata": "",
    "icao": "EDPA",
    "lat": 48.77777863,
    "long": 10.26472187
  },
  {
    "id": 386,
    "name": "Bayreuth Airport",
    "city": "Bayreuth",
    "country": "Germany",
    "iata": "BYU",
    "icao": "EDQD",
    "lat": 49.985001,
    "long": 11.64
  },
  {
    "id": 387,
    "name": "Burg Feuerstein Airport",
    "city": "Burg Feuerstein",
    "country": "Germany",
    "iata": "URD",
    "icao": "EDQE",
    "lat": 49.79416656,
    "long": 11.13361073
  },
  {
    "id": 388,
    "name": "Hof-Plauen Airport",
    "city": "Hof",
    "country": "Germany",
    "iata": "HOQ",
    "icao": "EDQM",
    "lat": 50.28861237,
    "long": 11.85638905
  },
  {
    "id": 389,
    "name": "Haßfurt-Schweinfurt Airport",
    "city": "Hassfurt",
    "country": "Germany",
    "iata": "",
    "icao": "EDQT",
    "lat": 50.01805496,
    "long": 10.52944374
  },
  {
    "id": 390,
    "name": "Koblenz-Winningen Airfield",
    "city": "Koblenz",
    "country": "Germany",
    "iata": "",
    "icao": "EDRK",
    "lat": 50.325558,
    "long": 7.528611
  },
  {
    "id": 391,
    "name": "Trier-Föhren Airport",
    "city": "Trier",
    "country": "Germany",
    "iata": "",
    "icao": "EDRT",
    "lat": 49.863888,
    "long": 6.7875
  },
  {
    "id": 392,
    "name": "Speyer Airfield",
    "city": "Speyer",
    "country": "Germany",
    "iata": "",
    "icao": "EDRY",
    "lat": 49.304722,
    "long": 8.451389
  },
  {
    "id": 393,
    "name": "Zweibrücken Airport",
    "city": "Zweibruecken",
    "country": "Germany",
    "iata": "ZQW",
    "icao": "EDRZ",
    "lat": 49.2094,
    "long": 7.40056
  },
  {
    "id": 394,
    "name": "Donaueschingen-Villingen Airport",
    "city": "Donaueschingen",
    "country": "Germany",
    "iata": "ZQL",
    "icao": "EDTD",
    "lat": 47.97333145,
    "long": 8.522221565
  },
  {
    "id": 395,
    "name": "Freiburg i. Br. Airport",
    "city": "Freiburg",
    "country": "Germany",
    "iata": "",
    "icao": "EDTF",
    "lat": 48.02277756,
    "long": 7.832499981
  },
  {
    "id": 396,
    "name": "Mengen-Hohentengen Airport",
    "city": "Mengen",
    "country": "Germany",
    "iata": "",
    "icao": "EDTM",
    "lat": 48.05389023,
    "long": 9.372777939
  },
  {
    "id": 397,
    "name": "Adolf Würth Airport",
    "city": "Schwaebisch Hall",
    "country": "Germany",
    "iata": "",
    "icao": "EDTY",
    "lat": 49.11833191,
    "long": 9.783888817
  },
  {
    "id": 398,
    "name": "Finsterwalde/Schacksdorf Airport",
    "city": "Soest",
    "country": "Germany",
    "iata": "",
    "icao": "EDUS",
    "lat": 51.607498,
    "long": 13.743611
  },
  {
    "id": 399,
    "name": "Braunschweig-Wolfsburg Airport",
    "city": "Braunschweig",
    "country": "Germany",
    "iata": "BWE",
    "icao": "EDVE",
    "lat": 52.319199,
    "long": 10.5561
  },
  {
    "id": 400,
    "name": "Kassel-Calden Airport",
    "city": "Kassel",
    "country": "Germany",
    "iata": "KSF",
    "icao": "EDVK",
    "lat": 51.417273,
    "long": 9.384967
  },
  {
    "id": 401,
    "name": "Hildesheim Airport",
    "city": "Hildesheim",
    "country": "Germany",
    "iata": "",
    "icao": "EDVM",
    "lat": 52.18138885,
    "long": 9.946389198
  },
  {
    "id": 402,
    "name": "Bremerhaven Airport",
    "city": "Bremerhaven",
    "country": "Germany",
    "iata": "BRV",
    "icao": "EDWB",
    "lat": 53.506943,
    "long": 8.572778
  },
  {
    "id": 403,
    "name": "Emden Airport",
    "city": "Emden",
    "country": "Germany",
    "iata": "EME",
    "icao": "EDWE",
    "lat": 53.391109,
    "long": 7.2275
  },
  {
    "id": 404,
    "name": "Leer-Papenburg Airport",
    "city": "Leer",
    "country": "Germany",
    "iata": "",
    "icao": "EDWF",
    "lat": 53.27194214,
    "long": 7.44166708
  },
  {
    "id": 405,
    "name": "Wilhelmshaven-Mariensiel Airport",
    "city": "Wilhelmshaven",
    "country": "Germany",
    "iata": "WVN",
    "icao": "EDWI",
    "lat": 53.50222015,
    "long": 8.052222252
  },
  {
    "id": 406,
    "name": "Borkum Airport",
    "city": "Borkum",
    "country": "Germany",
    "iata": "BMK",
    "icao": "EDWR",
    "lat": 53.59639,
    "long": 6.709167
  },
  {
    "id": 407,
    "name": "Norderney Airport",
    "city": "Norderney",
    "country": "Germany",
    "iata": "NRD",
    "icao": "EDWY",
    "lat": 53.70694351,
    "long": 7.230000019
  },
  {
    "id": 408,
    "name": "Flensburg-Schäferhaus Airport",
    "city": "Flensburg",
    "country": "Germany",
    "iata": "FLF",
    "icao": "EDXF",
    "lat": 54.7733345,
    "long": 9.378889084
  },
  {
    "id": 409,
    "name": "Rendsburg-Schachtholm Airport",
    "city": "Rendsburg",
    "country": "Germany",
    "iata": "",
    "icao": "EDXR",
    "lat": 54.22000122,
    "long": 9.599444389
  },
  {
    "id": 410,
    "name": "Westerland Sylt Airport",
    "city": "Westerland",
    "country": "Germany",
    "iata": "GWT",
    "icao": "EDXW",
    "lat": 54.91320038,
    "long": 8.340470314
  },
  {
    "id": 411,
    "name": "Ämari Air Base",
    "city": "Armari Air Force Base",
    "country": "Estonia",
    "iata": "",
    "icao": "EEEI",
    "lat": 59.26029968,
    "long": 24.20849991
  },
  {
    "id": 412,
    "name": "Kärdla Airport",
    "city": "Kardla",
    "country": "Estonia",
    "iata": "KDL",
    "icao": "EEKA",
    "lat": 58.99079895,
    "long": 22.83069992
  },
  {
    "id": 413,
    "name": "Kuressaare Airport",
    "city": "Kuressaare",
    "country": "Estonia",
    "iata": "URE",
    "icao": "EEKE",
    "lat": 58.22990036,
    "long": 22.5095005
  },
  {
    "id": 414,
    "name": "Pärnu Airport",
    "city": "Parnu",
    "country": "Estonia",
    "iata": "EPU",
    "icao": "EEPU",
    "lat": 58.41899872,
    "long": 24.4727993
  },
  {
    "id": 415,
    "name": "Lennart Meri Tallinn Airport",
    "city": "Tallinn-ulemiste International",
    "country": "Estonia",
    "iata": "TLL",
    "icao": "EETN",
    "lat": 59.41329956,
    "long": 24.83279991
  },
  {
    "id": 416,
    "name": "Tartu Airport",
    "city": "Tartu",
    "country": "Estonia",
    "iata": "TAY",
    "icao": "EETU",
    "lat": 58.30749893,
    "long": 26.69039917
  },
  {
    "id": 417,
    "name": "Enontekio Airport",
    "city": "Enontekio",
    "country": "Finland",
    "iata": "ENF",
    "icao": "EFET",
    "lat": 68.36260223,
    "long": 23.42429924
  },
  {
    "id": 418,
    "name": "Eura Airport",
    "city": "Eura",
    "country": "Finland",
    "iata": "",
    "icao": "EFEU",
    "lat": 61.11610031,
    "long": 22.20140076
  },
  {
    "id": 419,
    "name": "Halli Airport",
    "city": "Halli",
    "country": "Finland",
    "iata": "KEV",
    "icao": "EFHA",
    "lat": 61.856039,
    "long": 24.786686
  },
  {
    "id": 420,
    "name": "Helsinki Malmi Airport",
    "city": "Helsinki",
    "country": "Finland",
    "iata": "HEM",
    "icao": "EFHF",
    "lat": 60.25460052,
    "long": 25.0428009
  },
  {
    "id": 421,
    "name": "Helsinki Vantaa Airport",
    "city": "Helsinki",
    "country": "Finland",
    "iata": "HEL",
    "icao": "EFHK",
    "lat": 60.31719971,
    "long": 24.9633007
  },
  {
    "id": 422,
    "name": "Hameenkyro Airport",
    "city": "Hameenkyro",
    "country": "Finland",
    "iata": "",
    "icao": "EFHM",
    "lat": 61.68970108,
    "long": 23.07369995
  },
  {
    "id": 423,
    "name": "Hanko Airport",
    "city": "Hanko",
    "country": "Finland",
    "iata": "",
    "icao": "EFHN",
    "lat": 59.84889984,
    "long": 23.08359909
  },
  {
    "id": 424,
    "name": "Hyvinkää Airfield",
    "city": "Hyvinkaa",
    "country": "Finland",
    "iata": "HYV",
    "icao": "EFHV",
    "lat": 60.65439987,
    "long": 24.8810997
  },
  {
    "id": 425,
    "name": "Kiikala Airport",
    "city": "Kikala",
    "country": "Finland",
    "iata": "",
    "icao": "EFIK",
    "lat": 60.46250153,
    "long": 23.65250015
  },
  {
    "id": 426,
    "name": "Immola Airport",
    "city": "Immola",
    "country": "Finland",
    "iata": "",
    "icao": "EFIM",
    "lat": 61.24919891,
    "long": 28.90369987
  },
  {
    "id": 427,
    "name": "Kitee Airport",
    "city": "Kitee",
    "country": "Finland",
    "iata": "KTQ",
    "icao": "EFIT",
    "lat": 62.1661,
    "long": 30.073601
  },
  {
    "id": 428,
    "name": "Ivalo Airport",
    "city": "Ivalo",
    "country": "Finland",
    "iata": "IVL",
    "icao": "EFIV",
    "lat": 68.6072998,
    "long": 27.40530014
  },
  {
    "id": 429,
    "name": "Joensuu Airport",
    "city": "Joensuu",
    "country": "Finland",
    "iata": "JOE",
    "icao": "EFJO",
    "lat": 62.66289902,
    "long": 29.60750008
  },
  {
    "id": 430,
    "name": "Jyvaskyla Airport",
    "city": "Jyvaskyla",
    "country": "Finland",
    "iata": "JYV",
    "icao": "EFJY",
    "lat": 62.3995018,
    "long": 25.67830086
  },
  {
    "id": 431,
    "name": "Kauhava Airport",
    "city": "Kauhava",
    "country": "Finland",
    "iata": "KAU",
    "icao": "EFKA",
    "lat": 63.127102,
    "long": 23.051399
  },
  {
    "id": 432,
    "name": "Kemi-Tornio Airport",
    "city": "Kemi",
    "country": "Finland",
    "iata": "KEM",
    "icao": "EFKE",
    "lat": 65.77870178,
    "long": 24.58209991
  },
  {
    "id": 433,
    "name": "Kajaani Airport",
    "city": "Kajaani",
    "country": "Finland",
    "iata": "KAJ",
    "icao": "EFKI",
    "lat": 64.28549957,
    "long": 27.69239998
  },
  {
    "id": 434,
    "name": "Kauhajoki Airport",
    "city": "Kauhajoki",
    "country": "Finland",
    "iata": "KHJ",
    "icao": "EFKJ",
    "lat": 62.46250153,
    "long": 22.39310074
  },
  {
    "id": 435,
    "name": "Kokkola-Pietarsaari Airport",
    "city": "Kruunupyy",
    "country": "Finland",
    "iata": "KOK",
    "icao": "EFKK",
    "lat": 63.72119904,
    "long": 23.14310074
  },
  {
    "id": 436,
    "name": "Kemijarvi Airport",
    "city": "Kemijarvi",
    "country": "Finland",
    "iata": "",
    "icao": "EFKM",
    "lat": 66.712898,
    "long": 27.156799
  },
  {
    "id": 437,
    "name": "Kuusamo Airport",
    "city": "Kuusamo",
    "country": "Finland",
    "iata": "KAO",
    "icao": "EFKS",
    "lat": 65.98760223,
    "long": 29.23940086
  },
  {
    "id": 438,
    "name": "Kittilä Airport",
    "city": "Kittila",
    "country": "Finland",
    "iata": "KTT",
    "icao": "EFKT",
    "lat": 67.7009964,
    "long": 24.84679985
  },
  {
    "id": 439,
    "name": "Kuopio Airport",
    "city": "Kuopio",
    "country": "Finland",
    "iata": "KUO",
    "icao": "EFKU",
    "lat": 63.00709915,
    "long": 27.79780006
  },
  {
    "id": 440,
    "name": "Lahti Vesivehmaa Airport",
    "city": "Vesivehmaa",
    "country": "Finland",
    "iata": "QLF",
    "icao": "EFLA",
    "lat": 61.144199,
    "long": 25.693501
  },
  {
    "id": 441,
    "name": "Lappeenranta Airport",
    "city": "Lappeenranta",
    "country": "Finland",
    "iata": "LPP",
    "icao": "EFLP",
    "lat": 61.044601,
    "long": 28.144743
  },
  {
    "id": 442,
    "name": "Mariehamn Airport",
    "city": "Mariehamn",
    "country": "Finland",
    "iata": "MHQ",
    "icao": "EFMA",
    "lat": 60.12220001,
    "long": 19.89819908
  },
  {
    "id": 443,
    "name": "Menkijarvi Airport",
    "city": "Menkijarvi",
    "country": "Finland",
    "iata": "",
    "icao": "EFME",
    "lat": 62.94670105,
    "long": 23.51889992
  },
  {
    "id": 444,
    "name": "Mikkeli Airport",
    "city": "Mikkeli",
    "country": "Finland",
    "iata": "MIK",
    "icao": "EFMI",
    "lat": 61.6866,
    "long": 27.201799
  },
  {
    "id": 445,
    "name": "Nummela Airport",
    "city": "Nummela",
    "country": "Finland",
    "iata": "",
    "icao": "EFNU",
    "lat": 60.33390045,
    "long": 24.29640007
  },
  {
    "id": 446,
    "name": "Oulu Airport",
    "city": "Oulu",
    "country": "Finland",
    "iata": "OUL",
    "icao": "EFOU",
    "lat": 64.93009949,
    "long": 25.35460091
  },
  {
    "id": 447,
    "name": "Piikajarvi Airport",
    "city": "Piikajarvi",
    "country": "Finland",
    "iata": "",
    "icao": "EFPI",
    "lat": 61.24560165,
    "long": 22.19339943
  },
  {
    "id": 448,
    "name": "Pori Airport",
    "city": "Pori",
    "country": "Finland",
    "iata": "POR",
    "icao": "EFPO",
    "lat": 61.46170044,
    "long": 21.79999924
  },
  {
    "id": 449,
    "name": "Pudasjärvi Airport",
    "city": "Pudasjarvi",
    "country": "Finland",
    "iata": "",
    "icao": "EFPU",
    "lat": 65.40219879,
    "long": 26.94689941
  },
  {
    "id": 450,
    "name": "Pyhäsalmi Airport",
    "city": "Pyhasalmi",
    "country": "Finland",
    "iata": "",
    "icao": "EFPY",
    "lat": 63.73189926,
    "long": 25.92630005
  },
  {
    "id": 451,
    "name": "Raahe Pattijoki Airport",
    "city": "Pattijoki",
    "country": "Finland",
    "iata": "",
    "icao": "EFRH",
    "lat": 64.68810272,
    "long": 24.69580078
  },
  {
    "id": 452,
    "name": "Rantasalmi Airport",
    "city": "Rantasalmi",
    "country": "Finland",
    "iata": "",
    "icao": "EFRN",
    "lat": 62.06549835,
    "long": 28.35650063
  },
  {
    "id": 453,
    "name": "Rovaniemi Airport",
    "city": "Rovaniemi",
    "country": "Finland",
    "iata": "RVN",
    "icao": "EFRO",
    "lat": 66.56479645,
    "long": 25.83040047
  },
  {
    "id": 454,
    "name": "Rayskala Airport",
    "city": "Rayskala",
    "country": "Finland",
    "iata": "",
    "icao": "EFRY",
    "lat": 60.74470139,
    "long": 24.10779953
  },
  {
    "id": 455,
    "name": "Savonlinna Airport",
    "city": "Savonlinna",
    "country": "Finland",
    "iata": "SVL",
    "icao": "EFSA",
    "lat": 61.94309998,
    "long": 28.94510078
  },
  {
    "id": 456,
    "name": "Selanpaa Airport",
    "city": "Selanpaa",
    "country": "Finland",
    "iata": "",
    "icao": "EFSE",
    "lat": 61.06240082,
    "long": 26.7989006
  },
  {
    "id": 457,
    "name": "Sodankyla Airport",
    "city": "Sodankyla",
    "country": "Finland",
    "iata": "SOT",
    "icao": "EFSO",
    "lat": 67.39499664,
    "long": 26.61910057
  },
  {
    "id": 458,
    "name": "Tampere-Pirkkala Airport",
    "city": "Tampere",
    "country": "Finland",
    "iata": "TMP",
    "icao": "EFTP",
    "lat": 61.41410065,
    "long": 23.60440063
  },
  {
    "id": 459,
    "name": "Teisko Airport",
    "city": "Teisko",
    "country": "Finland",
    "iata": "",
    "icao": "EFTS",
    "lat": 61.7733,
    "long": 24.027
  },
  {
    "id": 460,
    "name": "Turku Airport",
    "city": "Turku",
    "country": "Finland",
    "iata": "TKU",
    "icao": "EFTU",
    "lat": 60.51409912,
    "long": 22.26280022
  },
  {
    "id": 461,
    "name": "Utti Air Base",
    "city": "Utti",
    "country": "Finland",
    "iata": "UTI",
    "icao": "EFUT",
    "lat": 60.89640045,
    "long": 26.93840027
  },
  {
    "id": 462,
    "name": "Vaasa Airport",
    "city": "Vaasa",
    "country": "Finland",
    "iata": "VAA",
    "icao": "EFVA",
    "lat": 63.05070114,
    "long": 21.7621994
  },
  {
    "id": 463,
    "name": "Varkaus Airport",
    "city": "Varkaus",
    "country": "Finland",
    "iata": "VRK",
    "icao": "EFVR",
    "lat": 62.17110062,
    "long": 27.86860085
  },
  {
    "id": 464,
    "name": "Ylivieska Airfield",
    "city": "Ylivieska-raudaskyla",
    "country": "Finland",
    "iata": "YLI",
    "icao": "EFYL",
    "lat": 64.0547222,
    "long": 24.7252778
  },
  {
    "id": 465,
    "name": "Belfast International Airport",
    "city": "Belfast",
    "country": "United Kingdom",
    "iata": "BFS",
    "icao": "EGAA",
    "lat": 54.65750122,
    "long": -6.215829849
  },
  {
    "id": 466,
    "name": "St Angelo Airport",
    "city": "Enniskillen",
    "country": "United Kingdom",
    "iata": "ENK",
    "icao": "EGAB",
    "lat": 54.39889908,
    "long": -7.651669979
  },
  {
    "id": 467,
    "name": "George Best Belfast City Airport",
    "city": "Belfast",
    "country": "United Kingdom",
    "iata": "BHD",
    "icao": "EGAC",
    "lat": 54.61809921,
    "long": -5.872499943
  },
  {
    "id": 468,
    "name": "City of Derry Airport",
    "city": "Londonderry",
    "country": "United Kingdom",
    "iata": "LDY",
    "icao": "EGAE",
    "lat": 55.0428009,
    "long": -7.161109924
  },
  {
    "id": 469,
    "name": "Birmingham International Airport",
    "city": "Birmingham",
    "country": "United Kingdom",
    "iata": "BHX",
    "icao": "EGBB",
    "lat": 52.45389938,
    "long": -1.748029947
  },
  {
    "id": 470,
    "name": "Coventry Airport",
    "city": "Coventry",
    "country": "United Kingdom",
    "iata": "CVT",
    "icao": "EGBE",
    "lat": 52.36970139,
    "long": -1.479719996
  },
  {
    "id": 471,
    "name": "Leicester Airport",
    "city": "Leicester",
    "country": "United Kingdom",
    "iata": "",
    "icao": "EGBG",
    "lat": 52.60779953,
    "long": -1.031939983
  },
  {
    "id": 472,
    "name": "Gloucestershire Airport",
    "city": "Golouchestershire",
    "country": "United Kingdom",
    "iata": "GLO",
    "icao": "EGBJ",
    "lat": 51.89419937,
    "long": -2.167220116
  },
  {
    "id": 474,
    "name": "Wolverhampton Halfpenny Green Airport",
    "city": "Halfpenny Green",
    "country": "United Kingdom",
    "iata": "",
    "icao": "EGBO",
    "lat": 52.51750183,
    "long": -2.259439945
  },
  {
    "id": 475,
    "name": "Cotswold Airport",
    "city": "Pailton",
    "country": "United Kingdom",
    "iata": "GBA",
    "icao": "EGBP",
    "lat": 51.668095,
    "long": -2.05694
  },
  {
    "id": 476,
    "name": "Turweston Airport",
    "city": "Turweston",
    "country": "United Kingdom",
    "iata": "",
    "icao": "EGBT",
    "lat": 52.04079819,
    "long": -1.095559955
  },
  {
    "id": 477,
    "name": "Wellesbourne Mountford Airport",
    "city": "Wellesbourne",
    "country": "United Kingdom",
    "iata": "",
    "icao": "EGBW",
    "lat": 52.19219971,
    "long": -1.614439964
  },
  {
    "id": 478,
    "name": "Manchester Airport",
    "city": "Manchester",
    "country": "United Kingdom",
    "iata": "MAN",
    "icao": "EGCC",
    "lat": 53.35369873,
    "long": -2.274950027
  },
  {
    "id": 479,
    "name": "Manchester Woodford Airport",
    "city": "Woodfort",
    "country": "United Kingdom",
    "iata": "",
    "icao": "EGCD",
    "lat": 53.3381,
    "long": -2.14889
  },
  {
    "id": 480,
    "name": "Royal Marines Base Chivenor Airport",
    "city": "Chivenor",
    "country": "United Kingdom",
    "iata": "",
    "icao": "EGDC",
    "lat": 51.08720016,
    "long": -4.15034008
  },
  {
    "id": 481,
    "name": "Newquay Cornwall Airport",
    "city": "Newquai",
    "country": "United Kingdom",
    "iata": "NQY",
    "icao": "EGHQ",
    "lat": 50.44060135,
    "long": -4.995409966
  },
  {
    "id": 482,
    "name": "RAF Lyneham",
    "city": "Lyneham",
    "country": "United Kingdom",
    "iata": "LYE",
    "icao": "EGDL",
    "lat": 51.5051,
    "long": -1.99343
  },
  {
    "id": 483,
    "name": "MoD Boscombe Down Airport",
    "city": "Boscombe Down",
    "country": "United Kingdom",
    "iata": "",
    "icao": "EGDM",
    "lat": 51.15219879,
    "long": -1.747410059
  },
  {
    "id": 484,
    "name": "RNAS Culdrose",
    "city": "Culdrose",
    "country": "United Kingdom",
    "iata": "",
    "icao": "EGDR",
    "lat": 50.08610153,
    "long": -5.255710125
  },
  {
    "id": 485,
    "name": "MoD St. Athan",
    "city": "St. Athan",
    "country": "United Kingdom",
    "iata": "",
    "icao": "EGDX",
    "lat": 51.4048,
    "long": -3.43575
  },
  {
    "id": 486,
    "name": "RNAS Yeovilton",
    "city": "Yeovilton",
    "country": "United Kingdom",
    "iata": "YEO",
    "icao": "EGDY",
    "lat": 51.00939941,
    "long": -2.638819933
  },
  {
    "id": 487,
    "name": "Haverfordwest Airport",
    "city": "Haverfordwest",
    "country": "United Kingdom",
    "iata": "HAW",
    "icao": "EGFE",
    "lat": 51.83309937,
    "long": -4.961110115
  },
  {
    "id": 488,
    "name": "Cardiff International Airport",
    "city": "Cardiff",
    "country": "United Kingdom",
    "iata": "CWL",
    "icao": "EGFF",
    "lat": 51.39670181,
    "long": -3.343329906
  },
  {
    "id": 489,
    "name": "Swansea Airport",
    "city": "Swansea",
    "country": "United Kingdom",
    "iata": "SWS",
    "icao": "EGFH",
    "lat": 51.6053009,
    "long": -4.067830086
  },
  {
    "id": 490,
    "name": "Bristol Airport",
    "city": "Bristol",
    "country": "United Kingdom",
    "iata": "BRS",
    "icao": "EGGD",
    "lat": 51.382702,
    "long": -2.71909
  },
  {
    "id": 491,
    "name": "Liverpool John Lennon Airport",
    "city": "Liverpool",
    "country": "United Kingdom",
    "iata": "LPL",
    "icao": "EGGP",
    "lat": 53.33359909,
    "long": -2.849720001
  },
  {
    "id": 492,
    "name": "London Luton Airport",
    "city": "London",
    "country": "United Kingdom",
    "iata": "LTN",
    "icao": "EGGW",
    "lat": 51.87469864,
    "long": -0.368333012
  },
  {
    "id": 493,
    "name": "Plymouth City Airport",
    "city": "Plymouth",
    "country": "United Kingdom",
    "iata": "PLH",
    "icao": "EGHD",
    "lat": 50.422798,
    "long": -4.10583
  },
  {
    "id": 494,
    "name": "Bournemouth Airport",
    "city": "Bournemouth",
    "country": "United Kingdom",
    "iata": "BOH",
    "icao": "EGHH",
    "lat": 50.77999878,
    "long": -1.842499971
  },
  {
    "id": 495,
    "name": "Southampton Airport",
    "city": "Southampton",
    "country": "United Kingdom",
    "iata": "SOU",
    "icao": "EGHI",
    "lat": 50.95029831,
    "long": -1.35679996
  },
  {
    "id": 496,
    "name": "Lasham Airport",
    "city": "Lasham",
    "country": "United Kingdom",
    "iata": "QLA",
    "icao": "EGHL",
    "lat": 51.18719864,
    "long": -1.033499956
  },
  {
    "id": 497,
    "name": "Alderney Airport",
    "city": "Alderney",
    "country": "Guernsey",
    "iata": "ACI",
    "icao": "EGJA",
    "lat": 49.706104,
    "long": -2.21472
  },
  {
    "id": 498,
    "name": "Guernsey Airport",
    "city": "Guernsey",
    "country": "Guernsey",
    "iata": "GCI",
    "icao": "EGJB",
    "lat": 49.43500137,
    "long": -2.601969957
  },
  {
    "id": 499,
    "name": "Jersey Airport",
    "city": "Jersey",
    "country": "Jersey",
    "iata": "JER",
    "icao": "EGJJ",
    "lat": 49.207901,
    "long": -2.195509911
  },
  {
    "id": 500,
    "name": "Shoreham Airport",
    "city": "Shoreham By Sea",
    "country": "United Kingdom",
    "iata": "ESH",
    "icao": "EGKA",
    "lat": 50.835602,
    "long": -0.297222
  },
  {
    "id": 501,
    "name": "London Biggin Hill Airport",
    "city": "Biggin Hill",
    "country": "United Kingdom",
    "iata": "BQH",
    "icao": "EGKB",
    "lat": 51.3307991,
    "long": 0.032499999
  },
  {
    "id": 502,
    "name": "London Gatwick Airport",
    "city": "London",
    "country": "United Kingdom",
    "iata": "LGW",
    "icao": "EGKK",
    "lat": 51.148102,
    "long": -0.190278
  },
  {
    "id": 503,
    "name": "London City Airport",
    "city": "London",
    "country": "United Kingdom",
    "iata": "LCY",
    "icao": "EGLC",
    "lat": 51.505299,
    "long": 0.055278
  },
  {
    "id": 504,
    "name": "Farnborough Airport",
    "city": "Farnborough",
    "country": "United Kingdom",
    "iata": "FAB",
    "icao": "EGLF",
    "lat": 51.2757988,
    "long": -0.776332974
  },
  {
    "id": 505,
    "name": "Chalgrove Airport",
    "city": "Chalsgrove",
    "country": "United Kingdom",
    "iata": "",
    "icao": "EGLJ",
    "lat": 51.67610168,
    "long": -1.080829978
  },
  {
    "id": 506,
    "name": "Blackbushe Airport",
    "city": "Blackbushe",
    "country": "United Kingdom",
    "iata": "BBS",
    "icao": "EGLK",
    "lat": 51.32389832,
    "long": -0.847500026
  },
  {
    "id": 507,
    "name": "London Heathrow Airport",
    "city": "London",
    "country": "United Kingdom",
    "iata": "LHR",
    "icao": "EGLL",
    "lat": 51.4706,
    "long": -0.461941
  },
  {
    "id": 508,
    "name": "Southend Airport",
    "city": "Southend",
    "country": "United Kingdom",
    "iata": "SEN",
    "icao": "EGMC",
    "lat": 51.57139969,
    "long": 0.695555985
  },
  {
    "id": 509,
    "name": "Lydd Airport",
    "city": "Lydd",
    "country": "United Kingdom",
    "iata": "LYX",
    "icao": "EGMD",
    "lat": 50.95610046,
    "long": 0.939167023
  },